id,lat,lon,name,owner,pgm,type,met,currents,waterquality,dart
"00922","30","-90","OTN201 - 4800922","Dalhousie University","IOOS Partners","other","n","n","n","n"
"00923","30","-90","OTN200 - 4800923","Dalhousie University","IOOS Partners","other","n","n","n","n"
"01500","30","-90","SP031 - 3801500","SCRIPPS","IOOS Partners","other","n","n","n","n"
"01502","30","-90","Penobscot - 4801502","University of Maine","IOOS Partners","other","n","n","n","n"
"01503","30","-90","Saul - 4801503","Woods Hole Oceanographic Institution","IOOS Partners","other","n","n","n","n"
"01504","30","-90","Blue - 4801504","University of Massachusetts","IOOS Partners","other","n","n","n","n"
"01505","30","-90","RU28 - 4801505","Rutgers","IOOS Partners","other","n","n","n","n"
"01506","30","-90","RU22 - 4801506","Rutgers","IOOS Partners","other","n","n","n","n"
"01507","30","-90","RU23 - 4801507","Rutgers","IOOS Partners","other","n","n","n","n"
"01508","30","-90","OTIS - 4801508","University of Delaware","IOOS Partners","other","n","n","n","n"
"01510","30","-90","Salacia - 4801510","North Carolina State University","IOOS Partners","other","n","n","n","n"
"01511","30","-90","Modena - 4801511","Skidaway","IOOS Partners","other","n","n","n","n"
"01517","30","-90","WHOI_406 - 4801517","Woods Hole Oceanographic Institution","IOOS Partners","other","n","n","n","n"
"01518","30","-90","RU30 - 4801518","Rutgers","IOOS Partners","other","n","n","n","n"
"01519","30","-90","Unit - 4801519","University of Maine","IOOS Partners","other","n","n","n","n"
"01521","30","-90","SP011 - 4801521","SCRIPPS","IOOS Partners","other","n","n","n","n"
"01522","30","-90","SP018 - 4801522","SCRIPPS","IOOS Partners","other","n","n","n","n"
"01523","30","-90","SP025 - 4801523","SCRIPPS","IOOS Partners","other","n","n","n","n"
"01524","30","-90","SP028 - 4801524","SCRIPPS","IOOS Partners","other","n","n","n","n"
"01526","30","-90","SP048 - 4801526","SCRIPPS","IOOS Partners","other","n","n","n","n"
"01531","30","-90","SP407 - 4801531","SCRIPPS","IOOS Partners","other","n","n","n","n"
"01532","30","-90","SP020 - 4801532","SCRIPPS","IOOS Partners","other","n","n","n","n"
"01534","30","-90","SP030 - 4801534","SCRIPPS","IOOS Partners","other","n","n","n","n"
"01535","30","-90","SP052 - 4801535","SCRIPPS","IOOS Partners","other","n","n","n","n"
"01536","30","-90","SP063 - 4801536","SCRIPPS","IOOS Partners","other","n","n","n","n"
"01537","30","-90","ru07 - 4801537","Rutgers","IOOS Partners","other","n","n","n","n"
"01538","30","-90","SP043 - 4801538","SCRIPPS","IOOS Partners","other","n","n","n","n"
"01909","30","-90","SCRIPPS Glider - 4801909","SCRIPPS","IOOS Partners","other","n","n","n","n"
"01910","30","-90","SCRIPPS Glider - 4801910","SCRIPPS","IOOS Partners","other","n","n","n","n"
"0y2w3","44.794","-87.313" elev="179","Sturgeon Bay CG Station, WI","U.S.C.G. Marine Reporting Stations","IOOS Partners","fixed","n","n","n","n"
"13001","12","-23" elev="0","NE Extension","Prediction and Research Moored Array in the Atlantic","International Partners","buoy","y","n","n","n"
"13002","21","-23" elev="0","NE Extension","Prediction and Research Moored Array in the Atlantic","International Partners","buoy","y","n","n","n"
"13008","15","-38" elev="0","Reggae","Prediction and Research Moored Array in the Atlantic","International Partners","buoy","y","n","n","n"
"13009","8","-38" elev="0","Lambada","Prediction and Research Moored Array in the Atlantic","International Partners","buoy","n","n","n","n"
"13010","0","0" elev="0","Soul","Prediction and Research Moored Array in the Atlantic","International Partners","buoy","n","n","n","n"
"14040","-8","67" elev="0","","Research Moored Array for African-Asian-Australian Monsoon Analysis and Prediction","International Partners","buoy","n","n","n","n"
"14041","-8","55" elev="0","","Research Moored Array for African-Asian-Australian Monsoon Analysis and Prediction","International Partners","buoy","y","n","n","n"
"14043","-12","67" elev="0","","Research Moored Array for African-Asian-Australian Monsoon Analysis and Prediction","International Partners","buoy","n","n","n","n"
"14047","-4","57" elev="0","","Research Moored Array for African-Asian-Australian Monsoon Analysis and Prediction","International Partners","buoy","n","n","n","n"
"15001","-10","-10" elev="0","Gavotte","Prediction and Research Moored Array in the Atlantic","International Partners","buoy","n","n","n","n"
"15002","0","-10" elev="0","Java","Prediction and Research Moored Array in the Atlantic","International Partners","buoy","y","n","n","n"
"15006","-6","-10" elev="0","Valse","Prediction and Research Moored Array in the Atlantic","International Partners","buoy","y","n","n","n"
"15007","-6","8" elev="0","SE Extension","Prediction and Research Moored Array in the Atlantic","International Partners","buoy","n","n","n","n"
"18ci3","41.73","-86.91" elev="176","Michigan City CG Station, IN","U.S.C.G. Marine Reporting Stations","IOOS Partners","fixed","n","n","n","n"
"20cm4","42.09","-86.49" elev="177","St. Joseph CG Station, MI","U.S.C.G. Marine Reporting Stations","IOOS Partners","fixed","n","n","n","n"
"21413","30.517","152.127" elev="0","SOUTHEAST TOKYO - 700NM ESE of Tokyo, JP","NDBC","Tsunami","dart","n","n","n","y"
"21414","48.963","178.237"," AMCHITKA - 170 NM South of Amchitka, AK","NDBC","Tsunami","dart","n","n","n","y"
"21415","50.153","171.897","ATTU - 175 NM South of Attu, AK","NDBC","Tsunami","dart","n","n","n","y"
"21416","48.11","163.435" elev="0","KAMCHATKA PENINSULA - 240NM SE of Kamchatka Peninsula, RU ","NDBC","Tsunami","dart","n","n","n","y"
"21418","38.767","148.653" elev="0","NORTHEAST TOKYO - 450 NM NE of Tokyo, JP","NDBC","Tsunami","dart","n","n","n","y"
"21419","44.401","155.653","KURIL ISLANDS - 209NM SE of Kuril Is. ","NDBC","Tsunami","dart","n","n","n","y"
"21420","28.891","135.022","SOUTHEAST MIYAZAKI - 260NM Southeast of Miyazaki","NDBC","Tsunami","dart","n","n","n","y"
"22101","37.23","126.02","","Korean Meteorological Administration","International Partners","buoy","y","n","n","n"
"22102","34.8","125.77","","Korean Meteorological Administration","International Partners","buoy","y","n","n","n"
"22103","34","127.5","","Korean Meteorological Administration","International Partners","buoy","y","n","n","n"
"22104","34.77","128.9","","Korean Meteorological Administration","International Partners","buoy","y","n","n","n"
"22105","37.53","130","","Korean Meteorological Administration","International Partners","buoy","y","n","n","n"
"22106","36.35","129.78","","Korean Meteorological Administration","International Partners","buoy","y","n","n","n"
"22107","33.08","126.03","","Korean Meteorological Administration","International Partners","buoy","y","n","n","n"
"22108","36.25","125.75","","Korean Meteorological Administration","International Partners","buoy","y","n","n","n"
"23001","0","81" elev="0","","Research Moored Array for African-Asian-Australian Monsoon Analysis and Prediction","International Partners","buoy","n","n","n","n"
"23003","-2","81" elev="0","","Research Moored Array for African-Asian-Australian Monsoon Analysis and Prediction","International Partners","buoy","n","n","n","n"
"23004","0","90" elev="0","","Research Moored Array for African-Asian-Australian Monsoon Analysis and Prediction","International Partners","buoy","n","n","n","n"
"23006","4","90" elev="0","","Research Moored Array for African-Asian-Australian Monsoon Analysis and Prediction","International Partners","buoy","n","n","n","n"
"23007","8","90" elev="0","","Research Moored Array for African-Asian-Australian Monsoon Analysis and Prediction","International Partners","buoy","n","n","n","n"
"23008","12","90" elev="0","","Research Moored Array for African-Asian-Australian Monsoon Analysis and Prediction","International Partners","buoy","n","n","n","n"
"23009","15","90" elev="0","","Research Moored Array for African-Asian-Australian Monsoon Analysis and Prediction","International Partners","buoy","n","n","n","n"
"23010","-4","81" elev="0","","Research Moored Array for African-Asian-Australian Monsoon Analysis and Prediction","International Partners","buoy","n","n","n","n"
"23011","15","65" elev="0","","Research Moored Array for African-Asian-Australian Monsoon Analysis and Prediction","International Partners","buoy","n","n","n","n"
"23012","8","67" elev="0","","Research Moored Array for African-Asian-Australian Monsoon Analysis and Prediction","International Partners","buoy","y","n","n","n"
"23013","4","67" elev="0","","Research Moored Array for African-Asian-Australian Monsoon Analysis and Prediction","International Partners","buoy","y","n","n","n"
"23014","2","67" elev="0","","Research Moored Array for African-Asian-Australian Monsoon Analysis and Prediction","International Partners","buoy","n","n","n","n"
"23015","0","67" elev="0","","Research Moored Array for African-Asian-Australian Monsoon Analysis and Prediction","International Partners","buoy","y","n","n","n"
"23016","-2","67" elev="0","","Research Moored Array for African-Asian-Australian Monsoon Analysis and Prediction","International Partners","buoy","y","n","n","n"
"23017","-4","67" elev="0","","Research Moored Array for African-Asian-Australian Monsoon Analysis and Prediction","International Partners","buoy","y","n","n","n"
"23217","3.798","91.701","Bay of Bengal IN3","Indian National Center for Ocean Information Services INDIA","Tsunami","dart","n","n","n","n"
"23218","10.165","88.5","Bay of Bengal IN4","National Institute for Ocean Technology INDIA","Tsunami","dart","n","n","n","n"
"23219","13.472","88.998","Bay of Bengal","Indian National Center for Ocean Information Services INDIA","Tsunami","dart","n","n","n","y"
"23223","17.333","89.483","Bay of Bengal","National Institute for Ocean Technology INDIA","Tsunami","dart","n","n","n","y"
"23225","18.63","67.18","","National Institute for Ocean Technology INDIA","Tsunami","dart","n","n","n","n"
"23226","20.2","67.333","Arabian Sea","National Institute for Ocean Technology INDIA","Tsunami","dart","n","n","n","n"
"23227","6.255","88.792","Bay of Bengal","Indian National Center for Ocean Information Services INDIA","Tsunami","dart","n","n","n","n"
"23228","20.764","65.284","Arabian Sea","Indian National Center for Ocean Information Services INDIA","Tsunami","dart","n","n","n","y"
"23401","8.86","88.55","BAY OF BENGAL - 600 NM WNW of Phuket, Thailand","National Disaster Warning Center (NDWC), Department of Disaster Prevention and Mitigation, Ministry of the Interior, Thailand","Tsunami","dart","n","n","n","y"
"23461","9.541","95.668","ANDAMAN SEA - 180 NM NW of Phuket, Thailand","National Disaster Warning Center (NDWC), Department of Disaster Prevention and Mitigation, Ministry of the Interior, Thailand","Tsunami","dart","n","n","n","y"
"28401","32.384","144.54" elev="0","Kuroshio Extension Observatory (KEO)","NOAA/PMEL","IOOS Partners","buoy","n","n","n","n"
"28906","30","-90","SG121","University of Washington - APL","IOOS Partners","other","n","n","n","n"
"28907","30","-90","SG171","University of Washington - APL","IOOS Partners","other","n","n","n","n"
"28908","30","-90","SG017","University of Washington - APL","IOOS Partners","other","n","n","n","n"
"28909","30","-90","SG123","University of Washington - APL","IOOS Partners","other","n","n","n","n"
"31001","0","-35" elev="0","Samba","Prediction and Research Moored Array in the Atlantic","International Partners","buoy","n","n","n","n"
"31002","4","-38" elev="0","Frevo","Prediction and Research Moored Array in the Atlantic","International Partners","buoy","n","n","n","n"
"31003","-8","-30" elev="0","Para?ba","Prediction and Research Moored Array in the Atlantic","International Partners","buoy","y","n","n","n"
"31004","-14","-32" elev="0","Salvador","Prediction and Research Moored Array in the Atlantic","International Partners","buoy","y","n","n","n"
"31005","-19","-34" elev="0","Espirito Santo","Prediction and Research Moored Array in the Atlantic","International Partners","buoy","y","n","n","n"
"31006","4","-23" elev="0","NE Extension","Prediction and Research Moored Array in the Atlantic","International Partners","buoy","y","n","n","n"
"31007","0","-23" elev="0","Jazz","Prediction and Research Moored Array in the Atlantic","International Partners","buoy","y","n","n","n"
"31051","-25.283","-44.933","Santos","Brazilian Navy Hydrographic Center","International Partners","buoy","n","n","n","n"
"31052","-8.15","-34.567","RECIFE","Brazilian Navy Hydrographic Center","International Partners","buoy","n","n","n","n"
"31053","-32.595","-51.353"," RIO GRANDE DO SUL","Brazilian Navy Hydrographic Center","International Partners","buoy","n","n","n","n"
"32068","-0.888","-81.664","ECUADOR INOCAR - 58 NM West of Manta, Ecuador","Instituto Oceanografico y Antartico de la Armadai (INOCAR)","Tsunami","dart","n","n","n","n"
"32069","0.255","-81.211","ECUADOR INOCAR - 71 NM West of Pedernales, Ecuador   ","Instituto Oceanografico y Antartico de la Armadai (INOCAR)","Tsunami","dart","n","n","n","n"
"32303","5","-95" elev="0","5N 95W","NDBC","TAO","tao" seq="6"
"32304","-5","-95" elev="0","5S 95W","NDBC","TAO","tao" seq="11"
"32305","-8","-95" elev="0","8S 95W","NDBC","TAO","tao" seq="12"
"32315","5","-110" elev="0","5N 110W","NDBC","TAO","tao" seq="13"
"32316","2","-110" elev="0","2N 110W","NDBC","TAO","tao" seq="14"
"32317","-2","-110" elev="0","2S 110W","NDBC","TAO","tao" seq="15"
"32318","-5","-110" elev="0","5S 110W","NDBC","TAO","tao" seq="16"
"32319","-8","-110" elev="0","8S 110W","NDBC","TAO","tao" seq="17"
"32320","2","-95" elev="0","2N 95W","NDBC","TAO","tao" seq="18"
"32321","0","-95" elev="0","0 95W","NDBC","TAO","tao" seq="19"
"32322","-2","-95" elev="0","2S 95W","NDBC","TAO","tao" seq="20"
"32323","0","-110" elev="0","0 110W","NDBC","TAO","tao" seq="21"
"32401","-20.474","-73.421","180 NM West of Iquique, Chile","Hydrographic and Oceanographic Service of the Chilean Navy (SHOA)","Tsunami","dart","n","n","n","y"
"32402","-26.743","-73.983","180 NM  West of Caldera, Chile","Hydrographic and Oceanographic Service of the Chilean Navy (SHOA)","Tsunami","dart","n","n","n","n"
"32403","-23.163","-72.037","91NM West of Antofagasta, Chile","Cooperative Effort DART 4G","Tsunami","dart","n","n","n","y"
"32404","-32.123","-73.799","120 NM NW of Valparaiso","Cooperative Effort DART 4G","Tsunami","dart","n","n","n","y"
"32411","4.958","-90.868","WEST PANAMA - 710 NM WSW of Panama City, Panama","NDBC","Tsunami","dart","n","n","n","y"
"32413","-4.7671","-120.2730","NORTHWEST LIMA - 1000 NM WNW of Lima, Peru","NDBC","Tsunami","dart","n","n","n","n"
"32489","2.998","-79.101","Colombia   121NM SW of Buenaventura, Colombia","DIMAR Colombia","Tsunami","dart","n","n","n","n"
"32st0","-22","-85" elev="0","Stratus","Woods Hole Oceanographic Institution","IOOS Partners","fixed","y","n","y","n"
"34420","-35.758","-75.243","119NM NW of Concepcion, Chile","Cooperative Effort DART 4G","Tsunami","dart","n","n","n","n"
"41001","34.775","-72.167" elev="0","EAST HATTERAS - 150 NM East of Cape Hatteras","NDBC","NDBC Meteorological/Ocean","buoy","y","n","n","n"
"41002","31.762","-74.957" elev="0","SOUTH HATTERAS - 225 NM South of Cape Hatteras","NDBC","NDBC Meteorological/Ocean","other","y","n","n","n"
"41004","32.502","-79.099" elev="0","EDISTO - 41 NM Southeast of Charleston, SC","NDBC","NDBC Meteorological/Ocean","other","y","n","n","n"
"41008","31.4","-80.866" elev="0","GRAYS REEF - 40 NM Southeast of Savannah, GA","NDBC","NDBC Meteorological/Ocean","buoy","y","n","n","n"
"41009","28.508","-80.185" elev="0","CANAVERAL 20 NM East of Cape Canaveral, FL","NDBC","NDBC Meteorological/Ocean","other","y","n","n","n"
"41010","28.878","-78.485" elev="0","CANAVERAL EAST - 120NM East of Cape Canaveral","NDBC","NDBC Meteorological/Ocean","other","y","n","n","n"
"41013","33.441","-77.764" elev="0","Frying Pan Shoals, NC","NDBC","NDBC Meteorological/Ocean","other","y","n","n","n"
"41024","33.837","-78.477" elev="0","Sunset Nearshore, NC (SUN2)","CORMP","IOOS Partners","buoy","y","n","y","n"
"41025","35.01","-75.454" elev="0","Diamond Shoals, NC","NDBC","NDBC Meteorological/Ocean","buoy","y","n","n","n"
"41026","12","-38" elev="0","Forro","Prediction and Research Moored Array in the Atlantic","International Partners","buoy","n","n","n","n"
"41029","32.803","-79.624" elev="0","Capers Nearshore, SC (CAP2)","CORMP","IOOS Partners","buoy","y","n","y","n"
"41033","32.279","-80.406" elev="0","Fripp Nearshore, SC (FRP2)","CORMP","IOOS Partners","buoy","y","n","y","n"
"41037","33.988","-77.362" elev="0","Wrightsville Beach Offshore, NC (ILM3)","CORMP","IOOS Partners","buoy","y","n","y","n"
"41038","34.141","-77.715" elev="0","Wrightsville Beach Nearshore, NC (ILM2)","CORMP","IOOS Partners","buoy","y","n","y","n"
"41040","14.542","-53.341" elev="0","NORTH EQUATORIAL ONE- 470 NM East of Martinique","NDBC","NDBC Meteorological/Ocean","other","y","n","n","n"
"41041","16.0753","-50.4805" elev="0","NORTH EQUATORIAL TWO - 890 NM East of Martinique ","NDBC","NDBC Meteorological/Ocean","buoy","n","n","n","n"
"41043","21.03","-64.79" elev="0","NE PUERTO RICO - 170 NM NNE of San Juan, PR","NDBC","NDBC Meteorological/Ocean","other","y","n","n","n"
"41044","21.582","-58.63" elev="0","NE ST MARTIN - 330 NM NE St Martin Is","NDBC","NDBC Meteorological/Ocean","buoy","y","n","n","n"
"41046","23.822","-68.384" elev="0","EAST BAHAMAS - 335 NM East of San Salvador Is,  Bahamas ","NDBC","NDBC Meteorological/Ocean","buoy","y","n","n","n"
"41047","27.463","-71.466" elev="0","NE BAHAMAS - 350 NM ENE of Nassau, Bahamas","NDBC","NDBC Meteorological/Ocean","other","y","n","n","n"
"41048","31.831","-69.573" elev="0","WEST BERMUDA - 240 NM West of Bermuda","NDBC","NDBC Meteorological/Ocean","other","y","n","n","n"
"41049","27.49","-62.938" elev="0","SOUTH BERMUDA - 300 NM SSE of Bermuda","NDBC","NDBC Meteorological/Ocean","other","y","n","n","n"
"41052","18.249","-64.763" elev="0","South of St. John, VI","Caribbean Integrated Coastal Ocean Observing System (CarICoos)","IOOS Partners","buoy","y","y","y","n"
"41053","18.474","-66.099" elev="0","San Juan, PR","Caribbean Integrated Coastal Ocean Observing System (CarICoos)","IOOS Partners","buoy","y","y","y","n"
"41056","18.261","-65.464" elev="0","Vieques Island, PR","Caribbean Integrated Coastal Ocean Observing System (CarICoos)","IOOS Partners","buoy","y","y","y","n"
"41058","18.476","-65.157" elev="0","North of St. Thomas, VI","Caribbean Integrated Coastal Ocean Observing System (CarICoos)","IOOS Partners","buoy","n","n","n","n"
"41060","14.824","-51.017" elev="0","Woods Hole Northwest Tropical Atlantic Wave Station","Woods Hole Oceanographic Institution","IOOS Partners","buoy","n","n","n","n"
"41064","34.207","-76.949" elev="0","Onslow Bay Outer, NC (LEJ3)","CORMP","IOOS Partners","buoy","y","n","y","n"
"41065","32.802","-79.619" elev="0","Capers Nearshore Waves (CAP2WAVE)","CORMP","IOOS Partners","buoy","y","n","n","n"
"41108","33.722","-78.016" elev="0","Wilmington Harbor, NC - (200)","SCRIPPS","IOOS Partners","buoy","y","y","n","n"
"41110","34.142","-77.715" elev="0","Masonboro Inlet, ILM2, NC (150)","CORMP","IOOS Partners","buoy","y","n","n","n"
"41112","30.709","-81.292" elev="0","Offshore Fernandina Beach, FL (132)","SCRIPPS","IOOS Partners","buoy","y","y","n","n"
"41113","28.4","-80.533" elev="0","Cape Canaveral Nearshore, FL (143)","SCRIPPS","IOOS Partners","buoy","y","n","n","n"
"41114","27.551","-80.217" elev="0","Fort Pierce, FL (134)","SCRIPPS","IOOS Partners","buoy","y","n","n","n"
"41115","18.376","-67.28" elev="0","Rincon, Puerto Rico (181)","Caribbean Integrated Coastal Ocean Observing System (CarICoos)","IOOS Partners","buoy","y","n","n","n"
"41117","30","-81.08" elev="0","St. Augustine, FL (194)","U.S. Army Corps of Engineers","IOOS Partners","buoy","y","y","n","n"
"41120","35.259","-75.286","Cape Hatteras East, NC (250)","SCRIPPS","IOOS Partners","buoy","y","n","n","n"
"41121","18.49","-66.701" elev="0","Arecibo, Puerto Rico (249)","Caribbean Integrated Coastal Ocean Observing System (CarICoos)","IOOS Partners","buoy","y","n","n","n"
"41139","20","-38" elev="0","","Prediction and Research Moored Array in the Atlantic","International Partners","buoy","y","n","n","n"
"41159","34.213","-76.949" elev="0","Onslow Bay Outer, NC (217)","CORMP","IOOS Partners","buoy","y","n","n","n"
"41300","15.85","-57.467","West Indies","Meteo France","International Partners","other","n","n","n","n"
"41420","23.37","-67.517","NORTH SANTO DOMINGO - 328NM NNE of Santo Domingo, DO","NDBC","Tsunami","dart","n","n","n","y"
"41421","23.373","-63.902","NORTH ST THOMAS - 300 NM North of St Thomas, Virgin Is","NDBC","Tsunami","dart","n","n","n","n"
"41425","28.633","-65.65","SOUTHWEST BERMUDA - 200 NM SSW of Hamilton, Bermuda","NDBC","Tsunami","dart","n","n","n","n"
"41nt0","15","-51" elev="0","NTAS - Northwest Tropical Atlantic","Woods Hole Oceanographic Institution","IOOS Partners","fixed","y","n","y","n"
"41x01","35.6784","-47.4925" elev="0","Adrift from 41001, 150nm E of Cape Hatteras","NDBC","NDBC Meteorological/Ocean","other","n","n","n","n"
"42001","25.942","-89.657" elev="0","MID GULF - 180 nm South of Southwest Pass, LA","NDBC","NDBC Meteorological/Ocean","other","n","n","n","n"
"42002","26.055","-93.646" elev="0","WEST GULF - 207 NM East of Brownsville, TX","NDBC","NDBC Meteorological/Ocean","buoy","y","n","n","n"
"42003","25.925","-85.615" elev="0","East GULF - 208 NM West of Naples, FL","NDBC","NDBC Meteorological/Ocean","buoy","y","n","n","n"
"42012","30.06","-87.548" elev="0","ORANGE BEACH - 44 NM SE of Mobile, AL","NDBC","NDBC Meteorological/Ocean","buoy","y","n","n","n"
"42013","27.173","-82.924" elev="0","C10 - WFS Central Buoy, 25m Isobath","COMPS (University of South Florida)","IOOS Partners","buoy","y","y","y","n"
"42019","27.91","-95.345" elev="0","FREEPORT, TX - 60 NM South of Freeport, TX","NDBC","NDBC Meteorological/Ocean","buoy","y","n","n","n"
"42020","26.968","-96.693" elev="0","CORPUS CHRISTI, TX - 60NM SSE of Corpus Christi, TX","NDBC","NDBC Meteorological/Ocean","other","y","n","n","n"
"42022","27.505","-83.741" elev="0","C12 - WFS Central Buoy, 50m Isobath","COMPS (University of South Florida)","IOOS Partners","buoy","y","y","y","n"
"42023","26.01","-83.086" elev="0","C13 - WFS South Buoy, 50m Isobath","COMPS (University of South Florida)","IOOS Partners","buoy","y","y","y","n"
"42026","25.171","-83.475" elev="0","Loop Current Pressure Point Buoy, 70m Isobath","COMPS (University of South Florida)","IOOS Partners","buoy","y","y","y","n"
"42031","30.09","-88.212" elev="0","West End CP, AL","Dauphin Island Sea Lab","IOOS Partners","buoy","n","n","n","n"
"42035","29.232","-94.413" elev="0","GALVESTON,TX -  22 NM East of Galveston, TX","NDBC","NDBC Meteorological/Ocean","other","y","n","n","n"
"42036","28.501","-84.508" elev="0","WEST TAMPA  - 112 NM WNW of Tampa, FL","NDBC","NDBC Meteorological/Ocean","other","y","n","n","n"
"42039","28.787","-86.007" elev="0","PENSACOLA - 115NM SSE of Pensacola, FL","NDBC","NDBC Meteorological/Ocean","other","y","n","n","n"
"42040","29.207","-88.237" elev="0","LUKE OFFSHORE TEST PLATFORM - 63 NM South of Dauphin Island, AL","NDBC","NDBC Meteorological/Ocean","other","y","n","n","n"
"42043","28.982","-94.899" elev="0","TGLO TABS Buoy B","TABS","IOOS Partners","buoy","n","n","n","n"
"42044","26.191","-97.051" elev="0","TGLO TABS Buoy J","TABS","IOOS Partners","buoy","n","n","n","n"
"42045","26.217","-96.5" elev="0","TGLO TABS Buoy K","TABS","IOOS Partners","buoy","n","n","n","n"
"42048","27.939","-96.843" elev="0","TABS D","TABS","IOOS Partners","buoy","n","n","n","n"
"42049","28.351","-96.006" elev="0","TABS W","TABS","IOOS Partners","buoy","n","n","n","n"
"42050","28.842","-94.242" elev="0","TABS F","TABS","IOOS Partners","buoy","n","n","n","n"
"42051","29.635","-93.642" elev="0","TABS R","TABS","IOOS Partners","buoy","n","n","n","n"
"42055","22.124","-93.941" elev="0","BAY OF CAMPECHE - 214 NM NE of Veracruz, MX","NDBC","NDBC Meteorological/Ocean","other","y","n","n","n"
"42056","19.82","-84.945" elev="0"," Yucatan Basin - 120 NM ESE of Cozumel, MX","NDBC","NDBC Meteorological/Ocean","other","y","n","n","n"
"42057","16.908","-81.422" elev="0","Western Caribbean - 195 NM WSW of Negril, Jamaica","NDBC","NDBC Meteorological/Ocean","buoy","n","n","n","n"
"42058","14.394","-74.816" elev="0","Central Caribbean - 210 NM SSE of Kingston, Jamaica","NDBC","NDBC Meteorological/Ocean","other","y","n","n","n"
"42059","15.287","-67.477" elev="0","Eastern Caribbean Sea - 180 NM SSW of Ponce, PR","NDBC","NDBC Meteorological/Ocean","other","y","n","n","n"
"42060","16.433","-63.331" elev="0","Caribbean Valley - 63 NM WSW of Montserrat","NDBC","NDBC Meteorological/Ocean","buoy","y","n","n","n"
"42067","30.05","-88.583" elev="0","USM-R1","USM","IOOS Partners","other","n","n","n","n"
"42084","28.988","-89.649" elev="0","Southwest Pass Entrance W, LA (256)","SCRIPPS","IOOS Partners","buoy","y","y","n","n"
"42085","17.869","-66.532" elev="0","Southeast of Ponce, PR","Caribbean Integrated Coastal Ocean Observing System (CarICoos)","IOOS Partners","buoy","y","y","n","n"
"42091","29.087","-92.506" elev="0","Trinity Shoal, LA (255)","SCRIPPS","IOOS Partners","buoy","y","n","n","n"
"42092","27.766","-96.979","Aransas Pass Channel Entrance S, TX (252)","Conrad Blucher Institute (CBI) for Surveying and Science, Texas A&amp;M University-Corpus Christi","IOOS Partners","buoy","n","n","n","n"
"42095","24.407","-81.967" elev="0","Satan Shoal, FL (244)","U.S. Army Corps of Engineers","IOOS Partners","buoy","y","y","n","n"
"42097","25.701","-83.65" elev="0","Pulley Ridge, FL (226)","U.S. Army Corps of Engineers","IOOS Partners","buoy","y","n","n","n"
"42098","27.59","-82.931" elev="0","Egmont Channel Entrance, FL (214)","Greater Tampa Bay Marine Advisory Council-PORTS","IOOS Partners","buoy","y","n","n","n"
"42099","27.345","-84.275" elev="0","Offshore St. Petersburg, FL (144)","SCRIPPS","IOOS Partners","buoy","y","n","n","n"
"42407","15.229","-68.188","SOUTH PUERTO RICO - 230 NM Southwest of San Juan, PR","NDBC","Tsunami","dart","n","n","n","y"
"42409","25.9","-89.287","GULF OF MEXICO - 247 NM South of New Orleans, LA","NDBC","Tsunami","dart","n","n","n","y"
"43001","8","-110" elev="0","8N 110W","NDBC","TAO","tao" seq="22"
"43301","8","-95" elev="0","8N 95W","NDBC","TAO","tao" seq="23"
"43412","16.045","-106.967","SOUTHWEST MANZANILLO - 240 NM SW of Manzanillo, MX","NDBC","Tsunami","dart","n","n","n","n"
"43413","12.3396","-101.4820" elev="0","SOUTH ACAPULCO - 360NM South of Acapulco, MX","NDBC","Tsunami","dart","n","n","n","n"
"44005","43.201","-69.127" elev="0","GULF OF MAINE - 78 NM East of Portsmouth, NH","NDBC","NDBC Meteorological/Ocean","buoy","y","n","n","n"
"44007","43.525","-70.14" elev="0","PORTLAND - 12 NM Southeast of Portland,ME","NDBC","NDBC Meteorological/Ocean","other","y","n","n","n"
"44008","40.503","-69.264" elev="0","NANTUCKET 54 NM Southeast of Nantucket","NDBC","NDBC Meteorological/Ocean","other","y","n","n","n"
"44009","38.451","-74.684" elev="0","DELAWARE BAY 26 NM Southeast of Cape May, NJ","NDBC","NDBC Meteorological/Ocean","buoy","y","n","n","n"
"44011","41.093","-66.562" elev="0","GEORGES BANK 170 NM East of Hyannis, MA","NDBC","NDBC Meteorological/Ocean","other","y","n","n","n"
"44013","42.346","-70.651" elev="0","BOSTON 16 NM East of Boston, MA","NDBC","NDBC Meteorological/Ocean","buoy","y","n","n","n"
"44014","36.609","-74.842" elev="0","VIRGINIA BEACH 64 NM East of Virginia Beach, VA","NDBC","NDBC Meteorological/Ocean","buoy","y","n","n","n"
"44017","40.693","-72.049" elev="0","MONTAUK POINT - 23 NM SSW of Montauk Point, NY","NDBC","NDBC Meteorological/Ocean","other","y","n","n","n"
"44018","42.206","-70.143" elev="0","CAPE COD - 9 NM North of Provincetown, MA","NDBC","NDBC Meteorological/Ocean","other","n","n","n","n"
"44020","41.493","-70.279" elev="0","NANTUCKET SOUND","NDBC","NDBC Meteorological/Ocean","other","y","n","n","n"
"44022","40.883","-73.728" elev="0","Execution Rocks","MYSOUND","IOOS Partners","buoy","y","n","n","n"
"44024","42.325","-65.909" elev="0","Buoy N01 - Northeast Channel","Northeastern Regional Association of Coastal Ocean Observing Systems","IOOS Partners","buoy","y","y","y","n"
"44025","40.251","-73.164" elev="0","LONG ISLAND - 30 NM South of Islip, NY","NDBC","NDBC Meteorological/Ocean","other","y","n","n","n"
"44027","44.283","-67.3" elev="0","Jonesport, ME - 20 NM SE of Jonesport, ME","NDBC","NDBC Meteorological/Ocean","other","y","n","n","n"
"44029","42.523","-70.566" elev="0","Buoy A01 - Massachusetts Bay","Northeastern Regional Association of Coastal Ocean Observing Systems","IOOS Partners","buoy","y","y","y","n"
"44030","43.179","-70.426" elev="0","Buoy B01 - Western Maine Shelf","Northeastern Regional Association of Coastal Ocean Observing Systems","IOOS Partners","buoy","y","y","y","n"
"44032","43.715","-69.355" elev="0","Buoy E01 - Central Maine Shelf","Northeastern Regional Association of Coastal Ocean Observing Systems","IOOS Partners","buoy","y","y","y","n"
"44033","44.055","-68.996" elev="0","Buoy F01 - Penobscot Bay","Northeastern Regional Association of Coastal Ocean Observing Systems","IOOS Partners","buoy","y","y","y","n"
"44034","44.103","-68.112" elev="0","Buoy I01 - Eastern Maine Shelf","Northeastern Regional Association of Coastal Ocean Observing Systems","IOOS Partners","buoy","y","y","y","n"
"44037","43.497","-67.876" elev="0","Buoy M01 - Jordan Basin","Northeastern Regional Association of Coastal Ocean Observing Systems","IOOS Partners","buoy","y","y","n","n"
"44039","41.138","-72.655" elev="0","Central Long Island Sound","MYSOUND","IOOS Partners","buoy","y","n","n","n"
"44040","40.956","-73.58" elev="0","Western Long Island Sound","MYSOUND","IOOS Partners","buoy","y","n","n","n"
"44041","37.204","-76.777" elev="0","Jamestown, VA","Chesapeake Bay Interpretive Buoy System (CBIBS)","IOOS Partners","buoy","y","y","n","n"
"44042","38.033","-76.335" elev="0","Potomac, MD","Chesapeake Bay Interpretive Buoy System (CBIBS)","IOOS Partners","buoy","y","y","y","n"
"44043","39.152","-76.391" elev="0","Patapsco, MD","Chesapeake Bay Interpretive Buoy System (CBIBS)","IOOS Partners","buoy","n","n","n","n"
"44056","36.2","-75.714" elev="0","Duck FRF, NC","U.S. Army Corps of Engineers","IOOS Partners","buoy","y","n","n","n"
"44057","39.54","-76.074" elev="0","Susquehanna, MD","Chesapeake Bay Interpretive Buoy System (CBIBS)","IOOS Partners","buoy","n","n","n","n"
"44058","37.567","-76.257" elev="0","Stingray Point, VA","Chesapeake Bay Interpretive Buoy System (CBIBS)","IOOS Partners","buoy","y","y","y","n"
"44061","38.788","-77.036" elev="0","Upper Potomac, MD","Chesapeake Bay Interpretive Buoy System (CBIBS)","IOOS Partners","buoy","n","n","n","n"
"44062","38.556","-76.415" elev="0","Gooses Reef, MD","Chesapeake Bay Interpretive Buoy System (CBIBS)","IOOS Partners","buoy","y","y","y","n"
"44063","38.963","-76.448" elev="0","Annapolis, MD","Chesapeake Bay Interpretive Buoy System (CBIBS)","IOOS Partners","buoy","y","y","y","n"
"44064","36.998","-76.087" elev="0","First Landing, VA","Chesapeake Bay Interpretive Buoy System (CBIBS)","IOOS Partners","buoy","n","n","n","n"
"44065","40.369","-73.703" elev="0","New York Harbor Entrance - 15 NM SE of Breezy Point , NY","NDBC","NDBC Meteorological/Ocean","other","y","n","n","n"
"44066","39.618","-72.644" elev="0","Texas Tower #4 - 75 NM East of Long Beach, NJ","NDBC","NDBC Meteorological/Ocean","other","y","n","n","n"
"44069","40.698","-73.087" elev="0","Great South Bay","Stony Brook University","IOOS Partners","buoy","y","n","y","n"
"44072","37.201","-76.266" elev="0","York Spit, VA   ","Chesapeake Bay Interpretive Buoy System (CBIBS)","IOOS Partners","buoy","y","n","y","n"
"44073","43.02","-70.54" elev="0","CO2 Gulf of Maine Buoy","University of New Hampshire","IOOS Partners","buoy","y","n","y","n"
"44075","40.363","-70.883" elev="0","OOI Pioneer Inshore Surface Mooring","Ocean Observatories Initiative","IOOS Partners","buoy","y","n","y","n"
"44076","40.137","-70.775" elev="0","OOI Pioneer Central Surface Mooring","Ocean Observatories Initiative","IOOS Partners","buoy","y","n","y","n"
"44077","39.94","-70.883" elev="0","OOI Pioneer Offshore Surface Mooring","Ocean Observatories Initiative","IOOS Partners","buoy","y","n","y","n"
"44078","59.94","-39.52" elev="0","OOI Irminger Sea Surface Mooring","Ocean Observatories Initiative","IOOS Partners","buoy","y","n","y","n"
"44086","36.001","-75.421" elev="0","Nags Head, NC (243)","UNC Coastal Studies Institute","IOOS Partners","buoy","y","n","n","n"
"44087","37.025","-76.151" elev="0","Thimble Shoal, VA (240)","U.S. Navy","IOOS Partners","buoy","y","n","n","n"
"44088","36.611","-74.841" elev="0","Virginia Beach Offshore, VA (171)","SCRIPPS","IOOS Partners","buoy","y","y","n","n"
"44089","37.754","-75.325" elev="0","Wallops Island, VA (224)","U.S. Army Corps of Engineers","IOOS Partners","buoy","y","n","n","n"
"44090","41.84","-70.329" elev="0","Cape Cod Bay, MA (221)","Woods Hole Group/NERACOOS","IOOS Partners","buoy","y","n","n","n"
"44091","39.768","-73.77" elev="0","Barnegat, NJ (209)","U.S. Army Corps of Engineers","IOOS Partners","buoy","y","n","n","n"
"44095","35.75","-75.33" elev="0","Oregon Inlet, NC (192)","UNC Coastal Studies Institute","IOOS Partners","buoy","y","n","n","n"
"44097","40.967","-71.126" elev="0","Block Island, RI  (154)","SCRIPPS","IOOS Partners","buoy","y","n","n","n"
"44098","42.8","-70.171" elev="0","Jeffrey's Ledge, NH (160)","University of New Hampshire","IOOS Partners","buoy","y","n","n","n"
"44099","36.915","-75.722" elev="0","Cape Henry, VA (147)","SCRIPPS","IOOS Partners","buoy","y","n","n","n"
"44100","36.258","-75.593" elev="0","Duck FRF 26m, NC (430)","SCRIPPS","IOOS Partners","buoy","y","n","n","n"
"44137","42.26","-62.03" elev="0","East Scotia Slope","Environment and Climate Change Canada","International Partners","buoy","y","n","n","n"
"44139","44.24","-57.1" elev="0","Banqureau Banks","Environment and Climate Change Canada","International Partners","buoy","y","n","n","n"
"44150","42.5","-64.02" elev="0","La Have Bank","Environment and Climate Change Canada","International Partners","buoy","y","n","n","n"
"44258","44.5","-63.4" elev="0","Halifax Harbour","Environment and Climate Change Canada","International Partners","buoy","y","n","n","n"
"44402","39.289","-70.639" elev="0","SOUTHEAST BLOCK CANYON - 130 NM SE of Fire Island, NY","NDBC","Tsunami","dart","n","n","n","y"
"44403","41.904","-61.655" elev="0","SABLE ISLAND BANK - 437 NM E of Boston, MA","NDBC","Tsunami","dart","n","n","n","y"
"44488","45.44","-60.95" elev="0","East of Chedabucto Bay","Environment and Climate Change Canada","International Partners","buoy","y","n","n","n"
"44489","45.49","-61.14" elev="0","West Chedabucto Bay","Environment and Climate Change Canada","International Partners","buoy","y","n","n","n"
"44490","44.66","-66.37" elev="0","West Bay of Fundy","Environment and Climate Change Canada","International Partners","buoy","y","n","n","n"
"45001","48.061","-87.793" elev="183","MID SUPERIOR- 60 NM North Northeast Hancock, MI","NDBC","NDBC Meteorological/Ocean","buoy","y","n","n","n"
"45002","45.344","-86.411" elev="176","NORTH MICHIGAN- Halfway between North Manitou and Washington Islands.","NDBC","NDBC Meteorological/Ocean","buoy","y","n","n","n"
"45003","45.351","-82.84" elev="177","NORTH HURON - 32NM Northeast of Alpena, MI","NDBC","NDBC Meteorological/Ocean","other","y","n","n","n"
"45004","47.585","-86.585" elev="183","EAST SUPERIOR -70 NM NE Marquette, MI","NDBC","NDBC Meteorological/Ocean","other","y","n","n","n"
"45005","41.677","-82.398" elev="174","WEST ERIE - 16 NM NW of Lorain, OH","NDBC","NDBC Meteorological/Ocean","buoy","y","n","n","n"
"45006","47.335","-89.793" elev="183","WEST SUPERIOR - 30NM NE of Outer Island, WI","NDBC","NDBC Meteorological/Ocean","other","y","n","n","n"
"45007","42.674","-87.026" elev="176","SOUTH MICHIGAN - 43NM East Southeast of Milwaukee, WI","NDBC","NDBC Meteorological/Ocean","other","y","n","n","n"
"45008","44.283","-82.416" elev="177","SOUTH HURON - 43NM East of Oscoda, MI","NDBC","NDBC Meteorological/Ocean","other","y","n","n","n"
"45012","43.621","-77.401" elev="74.7","EAST Lake Ontario  - 20NM North Northeast of Rochester, NY","NDBC","NDBC Meteorological/Ocean","other","y","n","n","n"
"45013","43.1","-87.85" elev="176","ATW20 - Atwater Park, WI","University of Wisconsin-Milwaukee","IOOS Partners","buoy","y","y","y","n"
"45014","44.795","-87.759" elev="176","GB17 - South Green Bay, WI","University of Wisconsin-Milwaukee","IOOS Partners","buoy","y","y","y","n"
"45020","44.789","-85.604" elev="176","Grand Traverse Bay South Buoy, MI","Northwestern Michigan College","IOOS Partners","buoy","n","n","n","n"
"45022","45.405","-85.085" elev="176","Little Traverse Bay Buoy, MI","University of Michigan CILER","IOOS Partners","buoy","y","n","y","n"
"45023","47.27","-88.607" elev="183","North Entry Buoy, North Keweenaw Peninsula, MI","Michigan Technological University","IOOS Partners","buoy","y","y","y","n"
"45024","43.981","-86.556" elev="176","Ludington Buoy, MI","University of Michigan CILER","IOOS Partners","buoy","y","n","y","n"
"45025","46.969","-88.398" elev="183","South Entry Buoy, South Keweenaw Peninsula, MI","Michigan Technological University","IOOS Partners","buoy","y","n","y","n"
"45026","41.982","-86.619" elev="176","Cook Nuclear Plant Buoy, Stevensville, MI","Limno Tech","IOOS Partners","buoy","y","y","y","n"
"45027","46.86","-91.93" elev="183","McQuade Harbor Nearshore, MN","University of Minnesota, Duluth","IOOS Partners","buoy","y","n","y","n"
"45028","46.814","-91.829" elev="183","Western Lake Superior","University of Minnesota, Duluth","IOOS Partners","buoy","y","n","y","n"
"45029","42.9","-86.272" elev="176","Holland Buoy, MI","Limno Tech","IOOS Partners","buoy","y","n","y","n"
"45132","42.46","-81.22" elev="174","Port Stanley","Environment and Climate Change Canada","International Partners","buoy","y","n","n","n"
"45135","43.78","-76.87" elev="75","Prince Edward Pt","Environment and Climate Change Canada","International Partners","buoy","y","n","n","n"
"45136","48.54","-86.95" elev="183","Slate Island","Environment and Climate Change Canada","International Partners","buoy","y","n","n","n"
"45137","45.54","-81.02" elev="177","Georgian Bay","Environment and Climate Change Canada","International Partners","buoy","n","n","n","n"
"45138","49.54","-65.71" elev="0","Mont Louis","Environment and Climate Change Canada","International Partners","buoy","n","n","n","n"
"45139","43.25","-79.53" elev="75","West Lake Ontario - Grimsby","Environment and Climate Change Canada","International Partners","buoy","y","n","n","n"
"45140","50.8","-96.73" elev="217","Lake Winnipeg S. Basin","Environment and Climate Change Canada","International Partners","buoy","y","n","n","n"
"45141","61.18","-115.31" elev="156","Great Slave Lake","Environment and Climate Change Canada","International Partners","buoy","y","n","n","n"
"45142","42.74","-79.29" elev="174","Port Colborne","Environment and Climate Change Canada","International Partners","buoy","y","n","n","n"
"45143","44.94","-80.627" elev="177","South Georgian Bay","Environment and Climate Change Canada","International Partners","buoy","y","n","n","n"
"45144","53.23","-98.29" elev="217","Lake Winnipeg North","Environment and Climate Change Canada","International Partners","buoy","n","n","n","n"
"45145","51.87","-96.97" elev="217","Lake Winnipeg Narrows","Environment and Climate Change Canada","International Partners","buoy","y","n","n","n"
"45147","42.43","-82.68" elev="175","Lake St Clair","Environment and Climate Change Canada","International Partners","buoy","y","n","n","n"
"45148","49.65","-94.5" elev="332","Lake of the Woods","Environment and Climate Change Canada","International Partners","buoy","y","n","n","n"
"45149","43.54","-82.08" elev="177","Southern Lake Huron","Environment and Climate Change Canada","International Partners","buoy","y","n","n","n"
"45150","61.98","-114.13" elev="156","Great Slave Lake, North Arm","Environment and Climate Change Canada","International Partners","buoy","y","n","n","n"
"45151","44.5","-79.37" elev="219","Lake Simcoe","Environment and Climate Change Canada","International Partners","buoy","y","n","n","n"
"45152","46.23","-79.72" elev="196","Lake Nipissing","Environment and Climate Change Canada","International Partners","buoy","y","n","n","n"
"45154","46.05","-82.64" elev="177","North Channel East","Environment and Climate Change Canada","International Partners","buoy","y","n","n","n"
"45159","43.77","-78.98" elev="75","NW Lake Ontario Ajax","Environment and Climate Change Canada","International Partners","buoy","y","n","n","n"
"45161","43.185","-86.355" elev="176","Muskegon Buoy, MI","GLERL","IOOS Partners","buoy","y","n","y","n"
"45162","44.988","-83.27" elev="176","Thunder Bay Buoy, Alpena, MI","GLERL","IOOS Partners","buoy","y","n","y","n"
"45163","43.983","-83.593" elev="176","Saginaw Bay Buoy, MI","GLERL","IOOS Partners","buoy","y","n","y","n"
"45164","41.732","-81.694" elev="174.2","Cleveland Buoy, OH","Limno Tech","IOOS Partners","buoy","y","n","y","n"
"45165","41.702","-83.261" elev="174","Toledo Water Intake Buoy, Oregon, OH","Limno Tech","IOOS Partners","buoy","y","y","n","n"
"45166","44.785","-73.258" elev="30","Lake Champlain - Inland Sea","Vermont EPSCOR","IOOS Partners","buoy","n","n","n","n"
"45167","42.185","-80.135" elev="173.9","Erie Nearshore Buoy, Erie, PA","Regional Science Consortium","IOOS Partners","buoy","n","n","n","n"
"45168","42.397","-86.331" elev="177","South Haven Buoy, MI","Limno Tech","IOOS Partners","buoy","y","n","y","n"
"45169","41.615","-81.821" elev="174","Lakewood Buoy, OH","Limno Tech","IOOS Partners","buoy","n","n","n","n"
"45170","41.755","-86.968" elev="177","Michigan City Buoy, IN","Illinois-Indiana Sea Grant and Purdue Civil Engineering","IOOS Partners","buoy","y","n","y","n"
"45171","46.724","-87.411" elev="183","Granite Island Buoy, Granite Island, MI","Northern Michigan University","IOOS Partners","buoy","n","n","n","n"
"45172","46.74","-85.98" elev="183","Grand Marais Buoy, Grand Marais, MI","Northern Michigan University","IOOS Partners","buoy","n","n","n","n"
"45173","46.573","-86.572" elev="178","Munising Buoy, Munising, MI","Northern Michigan University","IOOS Partners","buoy","n","n","n","n"
"45174","42.135","-87.655" elev="176","Wilmette Buoy, IL","Illinois-Indiana Sea Grant and Purdue Civil Engineering","IOOS Partners","buoy","y","n","y","n"
"45175","45.825","-84.772" elev="176","Mackinac Straits West, Mackinaw City, MI ","Michigan Technological University","IOOS Partners","buoy","y","y","n","n"
"45176","41.55","-81.765" elev="174","Cleveland Intake Crib Buoy, OH","Limno Tech","IOOS Partners","buoy","n","n","y","n"
"45177","41.894","-87.613" elev="176","Ohio St. Beach, Chicago, IL","Chicago Park District","IOOS Partners","buoy","n","n","n","n"
"45178","44.603","-73.394" elev="30","1 NM SE of Valcour Island, NY","SUNY Plattsburgh Center for Earth and Environmental Science/Lake Champlain Research Institute","IOOS Partners","buoy","n","n","n","n"
"45179","47.195","-87.224" elev="178","Stannard Rock Buoy","Superior Watershed Partnership","IOOS Partners","buoy","n","n","n","n"
"45180","48.034","-87.73" elev="0","Isle of Royale East, MI (230)","U.S. Army Corps of Engineers","IOOS Partners","buoy","y","n","n","n"
"45183","44.982","-85.831" elev="176","Sleeping Bear Dunes","National Park Service - Sleeping Bear Dunes","IOOS Partners","buoy","y","n","y","n"
"45184","44.55","-87.959" elev="176","Green Bay East Buoy","University of Wisconsin-Milwaukee","IOOS Partners","buoy","n","n","n","n"
"45185","44.577","-87.987" elev="176","Green Bay West Buoy","University of Wisconsin-Milwaukee","IOOS Partners","buoy","n","n","n","n"
"45186","42.368","-87.795" elev="176","Waukegan Buoy, IL","University of Illinois at Urbana-Champaign","IOOS Partners","buoy","y","y","n","n"
"45187","42.491","-87.779" elev="176","Winthrop Harbor Buoy, IL","University of Illinois at Urbana-Champaign","IOOS Partners","buoy","y","y","n","n"
"45188","44.094","-73.423" elev="30","Champlain Bridge Buoy","SUNY Plattsburgh Center for Earth and Environmental Science/Lake Champlain Research Institute","IOOS Partners","buoy","n","n","n","n"
"45194","45.804","-84.792" elev="177.43","McGulpin Point North, MI (253)","Michigan Technological University","IOOS Partners","buoy","y","y","n","n"
"45195","44.488","-73.339" elev="30","Schuyler Reef, NY (251)","GLERL","IOOS Partners","buoy","y","n","n","n"
"45196","41.521","-81.88" elev="174","Rocky River, OH","Limno Tech","IOOS Partners","buoy","y","n","y","n"
"45197","41.619","-81.617" elev="174","Euclid, OH","Limno Tech","IOOS Partners","buoy","y","n","y","n"
"45198","41.892","-87.563" elev="176","Chicago Buoy","Illinois-Indiana Sea Grant and Purdue Civil Engineering","IOOS Partners","buoy","y","n","n","n"
"46001","56.232","-147.949" elev="0","WESTERN GULF OF ALASKA  - 175NM SE of Kodiak, AK","NDBC","NDBC Meteorological/Ocean","buoy","y","n","n","n"
"46002","42.658","-130.502" elev="0","WEST OREGON - 275NM West of Coos Bay, OR","NDBC","NDBC Meteorological/Ocean","other","y","n","n","n"
"46004","50.93","-136.1" elev="0","Middle Nomad","Environment and Climate Change Canada","International Partners","buoy","y","n","n","n"
"46005","46.134","-131.079" elev="0","WEST WASHINGTON - 300NM West of Aberdeen, WA","NDBC","NDBC Meteorological/Ocean","other","y","n","n","n"
"46006","40.766","-137.379" elev="0","SOUTHEAST PAPA - 600NM West of Eureka, CA","NDBC","NDBC Meteorological/Ocean","other","y","n","n","n"
"46011","34.956","-121.019" elev="0","SANTA MARIA - 21NM NW of Point Arguello, CA","NDBC","NDBC Meteorological/Ocean","other","y","n","n","n"
"46012","37.356","-122.881" elev="0","HALF MOON BAY - 24NM SSW of San Francisco, CA","NDBC","NDBC Meteorological/Ocean","other","y","n","n","n"
"46013","38.253","-123.303" elev="0","BODEGA BAY - 48NM NW of San Francisco, CA","NDBC","NDBC Meteorological/Ocean","other","n","n","n","n"
"46014","39.231","-123.974" elev="0","PT ARENA - 19NM North of Point Arena, CA","NDBC","NDBC Meteorological/Ocean","other","y","n","n","n"
"46015","42.752","-124.844" elev="0","PORT ORFORD - 15 NM West of Port Orford, OR","NDBC","NDBC Meteorological/Ocean","other","y","n","n","n"
"46022","40.748","-124.527" elev="0","EEL RIVER - 17NM WSW of Eureka, CA","NDBC","NDBC Meteorological/Ocean","other","y","n","n","n"
"46025","33.758","-119.044" elev="0","Santa Monica Basin - 33NM WSW of Santa Monica, CA","NDBC","NDBC Meteorological/Ocean","other","y","n","n","n"
"46026","37.754","-122.839" elev="0","SAN FRANCISCO - 18NM West of San Francisco, CA","NDBC","NDBC Meteorological/Ocean","other","y","n","n","n"
"46027","41.852","-124.38" elev="0","ST GEORGES - 8 NM NW of Crescent City, CA","NDBC","NDBC Meteorological/Ocean","other","y","n","n","n"
"46028","35.77","-121.903" elev="0","CAPE SAN MARTIN - 55NM West NW of Morro Bay, CA","NDBC","NDBC Meteorological/Ocean","other","y","n","n","n"
"46029","46.143","-124.485" elev="0","COLUMBIA RIVER BAR - 20NM West of Columbia River Mouth","NDBC","NDBC Meteorological/Ocean","other","y","n","n","n"
"46035","57.016","-177.703" elev="0","CENTRAL BERING SEA - 310 NM North of Adak, AK","NDBC","NDBC Meteorological/Ocean","other","y","n","n","n"
"46036","48.36","-133.94" elev="0","South Nomad","Environment and Climate Change Canada","International Partners","buoy","y","n","n","n"
"46041","47.353","-124.742" elev="0","CAPE ELIZABETH- 45NM NW of Aberdeen, WA","NDBC","NDBC Meteorological/Ocean","buoy","y","n","n","n"
"46042","36.785","-122.398" elev="0","MONTEREY - 27NM WNW of Monterey, CA","NDBC","NDBC Meteorological/Ocean","other","y","n","n","n"
"46047","32.388","-119.525" elev="0","TANNER BANK - 121 NM West of San Diego, CA","NDBC","NDBC Meteorological/Ocean","other","y","n","n","n"
"46050","44.669","-124.546" elev="0","STONEWALL BANK - 20NM West of Newport, OR","NDBC","NDBC Meteorological/Ocean","other","y","n","n","n"
"46053","34.241","-119.839" elev="0","EAST SANTA BARBARA  - 12NM Southwest of Santa Barbara, CA","NDBC","NDBC Meteorological/Ocean","other","y","n","n","n"
"46054","34.273","-120.47" elev="0","WEST SANTA BARBARA  38 NM West of Santa Barbara, CA","NDBC","NDBC Meteorological/Ocean","other","y","n","n","n"
"46059","38.094","-129.951" elev="0","WEST CALIFORNIA - 357NM West of San Francisco, CA","NDBC","NDBC Meteorological/Ocean","other","n","n","n","n"
"46060","60.5911","-148.0707" elev="0","WEST ORCA BAY - 8NM NW of Hinchinbrook Is., AK","NDBC","NDBC Meteorological/Ocean","other","n","n","n","n"
"46061","60.238","-146.833" elev="0","Seal Rocks - Between Montague and Hinchinbrook Islands, AK","NDBC","NDBC Meteorological/Ocean","other","y","n","n","n"
"46066","52.765","-155.009" elev="0","SOUTH KODIAK - 310NM SSW of Kodiak, AK","NDBC","NDBC Meteorological/Ocean","other","y","n","n","n"
"46069","33.677","-120.213" elev="0","SOUTH SANTA ROSA IS. CA","NDBC","NDBC Meteorological/Ocean","other","y","n","n","n"
"46070","55.008","175.183" elev="0","SOUTHWEST BERING SEA - 142NM NNE OF ATTU IS, AK","NDBC","NDBC Meteorological/Ocean","other","y","n","n","n"
"46071","51.125","179.012" elev="0","WESTERN ALEUTIANS - 14NM SOUTH OF AMCHITKA IS, AK ","NDBC","NDBC Meteorological/Ocean","other","n","n","n","n"
"46072","51.672","-172.088" elev="0","CENTRAL ALEUTIANS 230 NM SW Dutch Harbor","NDBC","NDBC Meteorological/Ocean","buoy","y","n","n","n"
"46073","55.009","-172.002" elev="0","SOUTHEAST BERING SEA - 205 NM WNW of Dutch Harbor, AK","NDBC","NDBC Meteorological/Ocean","other","y","n","n","n"
"46075","53.969","-160.794" elev="0","SHUMAGIN ISLANDS - 85NM South of Sand Point, AK","NDBC","NDBC Meteorological/Ocean","other","n","n","n","n"
"46076","59.471","-148.009" elev="0","CAPE CLEARE - 17 NM South of Montague Is,  AK","NDBC","NDBC Meteorological/Ocean","other","y","n","n","n"
"46077","57.902","-154.176" elev="0","SHELIKOF STRAIT, AK","NDBC","NDBC Meteorological/Ocean","other","y","n","n","n"
"46078","55.556","-152.582" elev="0","ALBATROSS BANK - 104NM South of Kodiak Is., AK","NDBC","NDBC Meteorological/Ocean","other","y","n","n","n"
"46080","57.947","-150.042" elev="0","PORTLOCK BANK- 76 NM ENE of Kodiak, AK","NDBC","NDBC Meteorological/Ocean","other","y","n","n","n"
"46081","60.802","-148.283" elev="0","Western Prince William Sound","NDBC","NDBC Meteorological/Ocean","other","y","n","n","n"
"46082","59.681","-143.372" elev="0","Cape Suckling - 35 NM SE of Kayak Is, AK","NDBC","NDBC Meteorological/Ocean","other","y","n","n","n"
"46083","58.27","-138.019" elev="0","FAIRWEATHER GROUND - 105 NM West  of Juneau, AK","NDBC","NDBC Meteorological/Ocean","other","y","n","n","n"
"46084","56.622","-136.102" elev="0","CAPE EDGECUMBE - 25NM SSW of Cape Edgecumbe, AK","NDBC","NDBC Meteorological/Ocean","other","y","n","n","n"
"46085","55.883","-142.882" elev="0","CENTRAL GULF OF ALASKA -  265NM West of Cape Ommaney, AK","NDBC","NDBC Meteorological/Ocean","buoy","y","n","n","n"
"46086","32.499","-118.052" elev="0","SAN CLEMENTE BASIN - 27NM SE Of San Clemente Is, CA","NDBC","NDBC Meteorological/Ocean","other","y","n","n","n"
"46087","48.493","-124.726" elev="0","Neah Bay - 6 NM North of Cape Flattery, WA     (Traffic Separation Lighted Buoy)","NDBC","NDBC Meteorological/Ocean","buoy","n","n","n","n"
"46088","48.332","-123.179" elev="0","NEW DUNGENESS - 17 NM NE of Port Angeles, WA","NDBC","NDBC Meteorological/Ocean","buoy","y","y","n","n"
"46089","45.933","-125.785" elev="0","TILLAMOOK, OR - 85 NM WNW of Tillamook, OR","NDBC","NDBC Meteorological/Ocean","other","y","n","n","n"
"46092","36.751","-122.029" elev="0","MBM1","MBARI","IOOS Partners","buoy","y","n","n","n"
"46096","46.173","-124.127" elev="0","Columbia River Entrance - SATURN Station #02 Offshore","Columbia River Inter-Tribal Fish Commission","IOOS Partners","buoy","n","n","n","n"
"46097","44.639","-124.304" elev="0","OOI Newport Shelf","Ocean Observatories Initiative","IOOS Partners","buoy","y","n","y","n"
"46098","44.381","-124.956" elev="0","OOI Waldport Offshore","Ocean Observatories Initiative","IOOS Partners","buoy","y","n","y","n"
"46099","46.986","-124.566" elev="0","OOI Westport Shelf","Ocean Observatories Initiative","IOOS Partners","buoy","y","n","y","n"
"46100","46.851","-124.972" elev="0","OOI Westport Offshore","Ocean Observatories Initiative","IOOS Partners","buoy","y","n","y","n"
"46108","59.596","-151.829" elev="0","Lower Cook Inlet (204)","Alaska Ocean Observing System","IOOS Partners","buoy","y","y","n","n"
"46114","36.7","-122.343" elev="0","West Monterey Bay, CA (185)","SCRIPPS","IOOS Partners","buoy","y","n","n","n"
"46116","46.287","-124.016" elev="0","SATURN Estuary Station #07, Baker Bay, WA","Columbia River Inter-Tribal Fish Commission","IOOS Partners","buoy","n","n","y","n"
"46117","46.176","-123.869" elev="0","SATURN Estuary Station #09, Youngs Bay, OR","Columbia River Inter-Tribal Fish Commission","IOOS Partners","buoy","n","n","y","n"
"46118","48.724","-122.576" elev="0","Se'lhaem Bellingham Bay","Northwest Association of Networked Ocean Observing Systems","IOOS Partners","buoy","n","n","n","n"
"46119","47.967","-124.95" elev="0","Cha'Ba La Push","Northwest Association of Networked Ocean Observing Systems","IOOS Partners","buoy","n","n","n","n"
"46120","47.761","-122.397" elev="0","Pt Wells, WA (U of Wash)","University of Washington","IOOS Partners","buoy","n","n","n","n"
"46121","47.28","-122.73" elev="0","Carr Inlet, WA (U of Wash) ","University of Washington","IOOS Partners","buoy","n","n","n","n"
"46122","47.803","-122.803" elev="0","Dabob Bay, WA (U of Wash)","University of Washington","IOOS Partners","buoy","n","n","n","n"
"46123","47.375","-123.008" elev="0","Twanoh - Hood Canal, WA (U of Wash)","University of Washington","IOOS Partners","buoy","n","n","n","n"
"46124","47.422","-123.113" elev="0","Hoodsport - Hood Canal, WA (U of Wash)","University of Washington","IOOS Partners","buoy","n","n","n","n"
"46125","47.907","-122.627" elev="0","Hansville - Hood Canal, WA","University of Washington","IOOS Partners","buoy","n","n","n","n"
"46127","46.215","-124.063" elev="0","SATURN Offshore Station #10, Columbia River, South Jetty, OR","Columbia River Inter-Tribal Fish Commission","IOOS Partners","buoy","n","n","n","n"
"46128","43.292","-124.538" elev="0","Buoy CB-06 - West of Coos Bay, OR","Northwest Association of Networked Ocean Observing Systems","IOOS Partners","buoy","y","n","n","n"
"46131","49.91","-124.98" elev="0","Sentry Shoal","Environment and Climate Change Canada","International Partners","buoy","y","n","n","n"
"46132","49.78","-127.89" elev="0","South Brooks","Environment and Climate Change Canada","International Partners","buoy","y","n","n","n"
"46145","54.37","-132.42" elev="0","Central Dixon Entrance Buoy","Environment and Climate Change Canada","International Partners","buoy","y","n","n","n"
"46146","49.34","-123.73" elev="0","Halibut Bank","Environment and Climate Change Canada","International Partners","buoy","y","n","n","n"
"46147","51.83","-131.22" elev="0","South Moresby","Environment and Climate Change Canada","International Partners","buoy","y","n","n","n"
"46181","53.83","-128.83" elev="0","Nanakwa Shoal","Environment and Climate Change Canada","International Partners","buoy","y","n","n","n"
"46183","53.62","-131.1" elev="0","North Hecate Strait","Environment and Climate Change Canada","International Partners","buoy","y","n","n","n"
"46184","53.92","-138.85" elev="0","North Nomad","Environment and Climate Change Canada","International Partners","buoy","y","n","n","n"
"46185","52.42","-129.79" elev="0","South Hecate Strait","Environment and Climate Change Canada","International Partners","buoy","y","n","n","n"
"46204","51.38","-128.77" elev="0","West Sea Otter","Environment and Climate Change Canada","International Partners","buoy","y","n","n","n"
"46205","54.18","-134.32" elev="0","West Dixon Entrance","Environment and Climate Change Canada","International Partners","buoy","y","n","n","n"
"46206","48.84","-126" elev="0","La Perouse Bank","Environment and Climate Change Canada","International Partners","buoy","y","n","n","n"
"46207","50.87","-129.92" elev="0","East Dellwood","Environment and Climate Change Canada","International Partners","buoy","y","n","n","n"
"46208","52.52","-132.69" elev="0","West Moresby","Environment and Climate Change Canada","International Partners","buoy","y","n","n","n"
"46211","46.857","-124.244" elev="0","Grays Harbor, WA (036)","SCRIPPS","IOOS Partners","buoy","y","n","n","n"
"46213","40.295","-124.732" elev="0","Cape Mendocino, CA (094)","SCRIPPS","IOOS Partners","buoy","y","n","n","n"
"46214","37.937","-123.463" elev="0","Point Reyes, CA (029)","SCRIPPS","IOOS Partners","buoy","y","n","n","n"
"46215","35.204","-120.859" elev="0","Diablo Canyon, CA (076)","SCRIPPS","IOOS Partners","buoy","y","n","n","n"
"46218","34.452","-120.78" elev="0","Harvest, CA (071)","SCRIPPS","IOOS Partners","buoy","y","n","n","n"
"46219","33.219","-119.872" elev="0","San Nicolas Island, CA (067)","SCRIPPS","IOOS Partners","buoy","y","n","n","n"
"46221","33.86","-118.641" elev="0","Santa Monica Bay, CA (028)","SCRIPPS","IOOS Partners","buoy","y","n","n","n"
"46222","33.618","-118.317" elev="0","San Pedro, CA (092)","SCRIPPS","IOOS Partners","buoy","y","n","n","n"
"46224","33.178","-117.472" elev="0","Oceanside Offshore, CA (045)","SCRIPPS","IOOS Partners","buoy","y","n","n","n"
"46225","32.933","-117.391" elev="0","Torrey Pines Outer, CA (100)","SCRIPPS","IOOS Partners","buoy","y","n","n","n"
"46229","43.77","-124.549" elev="0","UMPQUA OFFSHORE, OR (139)","SCRIPPS","IOOS Partners","buoy","y","n","n","n"
"46232","32.517","-117.425" elev="0","Point Loma South, CA  (191)","SCRIPPS","IOOS Partners","buoy","y","n","n","n"
"46235","32.57","-117.169","Imperial Beach Nearshore, CA (155)","SCRIPPS","IOOS Partners","buoy","y","n","n","n"
"46237","37.788","-122.632" elev="0","San Francisco Bar, CA  (142)","SCRIPPS","IOOS Partners","buoy","y","y","n","n"
"46239","36.335","-122.104" elev="0","Point Sur, CA (157)","SCRIPPS","IOOS Partners","buoy","y","n","n","n"
"46240","36.626","-121.907" elev="0","Cabrillo Point, Monterey Bay, CA  (158)","SCRIPPS","IOOS Partners","buoy","y","n","n","n"
"46242","33.22","-117.439" elev="0","Camp Pendleton Nearshore, CA  (043)","SCRIPPS","IOOS Partners","buoy","n","n","n","n"
"46243","46.216","-124.128" elev="0","Clatsop Spit, OR (162)","SCRIPPS","IOOS Partners","buoy","y","n","n","n"
"46244","40.896","-124.357" elev="0","Humboldt Bay, North Spit, CA (168)","SCRIPPS","IOOS Partners","buoy","y","n","n","n"
"46246","50.017","-145.17" elev="0","Ocean Station PAPA  (166)","APL-UW, University of Washington Applied Physics Laboratory","IOOS Partners","buoy","y","n","n","n"
"46248","46.133","-124.644" elev="0","Astoria Canyon, OR  (179)","SCRIPPS","IOOS Partners","buoy","y","n","n","n"
"46251","33.769","-119.565" elev="0","Santa Cruz Basin, CA (203)","SCRIPPS","IOOS Partners","buoy","y","n","n","n"
"46253","33.576","-118.181" elev="0","San Pedro South, CA (213)","SCRIPPS","IOOS Partners","buoy","y","n","n","n"
"46254","32.868","-117.267" elev="0","SCRIPPS Nearshore, CA (201)","SCRIPPS","IOOS Partners","buoy","y","n","n","n"
"46256","33.7","-118.201" elev="0","Long Beach Channel, CA (215)","SCRIPPS","IOOS Partners","buoy","y","n","n","n"
"46258","32.752","-117.501" elev="0","Mission Bay West, CA (220)","SCRIPPS","IOOS Partners","buoy","y","n","n","n"
"46259","34.767","-121.498" elev="0","Santa Lucia Escarpment, CA (222)","U.S. Army Corps of Engineers","IOOS Partners","buoy","y","n","n","n"
"46264","57.479","-151.695" elev="0","Kodiak, AK (236)","National Renewable Energy Laboratory","IOOS Partners","buoy","y","n","n","n"
"46265","64.473","-165.475" elev="0","Nome, AK (241)","Alaska Ocean Observing System","IOOS Partners","buoy","n","n","n","n"
"46266","32.957","-117.279" elev="0","Del Mar Nearshore, CA (153)","U.S. Army Corps of Engineers","IOOS Partners","buoy","y","y","n","n"
"46267","48.173","-123.607" elev="0","Angeles Point, WA (248)","SCRIPPS","IOOS Partners","buoy","n","n","n","n"
"46268","34.022","-118.578" elev="0","Topanga Nearshore, CA (103)","SCRIPPS","IOOS Partners","buoy","y","y","n","n"
"46269","36.934","-122.034" elev="0","Point Santa Cruz, CA (254)","SCRIPPS","IOOS Partners","buoy","y","y","n","n"
"46303","49.02","-123.43" elev="0","Southern Georgia Strait","Environment and Climate Change Canada","International Partners","buoy","y","n","n","n"
"46304","49.3","-123.36" elev="0","Entrance To English Bay","Environment and Climate Change Canada","International Partners","buoy","y","n","n","n"
"46402","50.978","-163.948"," South Dutch Harbor - 220 NM SSE of Dutch Harbor, AK","NDBC","Tsunami","dart","n","n","n","y"
"46403","52.663","-156.778","SOUTHEAST SHUMAGIN ISLAND - 186 NM SE of Shumagin Is, AK","NDBC","Tsunami","dart","n","n","n","y"
"46404","45.848","-128.775","WEST ASTORIA - 230 NM West of Astoria, OR","NDBC","Tsunami","dart","n","n","n","y"
"46407","42.705","-128.835","NEWPORT - 210NM West of Coos Bay, OR","NDBC","Tsunami","dart","n","n","n","y"
"46408","49.652","-169.895"," NIKOLSKI - 212 NM South of Umnak Is, AK","NDBC","Tsunami","dart","n","n","n","y"
"46409","55.318","-148.547","SOUTHEAST KODIAK - 210 NM SE of Kodiak, AK","NDBC","Tsunami","dart","n","n","n","y"
"46410","57.644","-143.734","SOUTH CORDOVA 188NM SSE of Cordova, AK","NDBC","Tsunami","dart","n","n","n","n"
"46411","39.335","-127.07","Mendocino - 150 NM West of  Mendocino Bay, CA","NDBC","Tsunami","dart","n","n","n","n"
"46413","48.038","-173.917","SOUTH-SOUTHEAST ADAK - 243 NM SSE of Adak Island, AK","NDBC","Tsunami","dart","n","n","n","y"
"46414","53.726","-152.483","SOUTHEAST CHIRIKOF - 165 NM SE of Chirikof Island, AK","NDBC","Tsunami","dart","n","n","n","y"
"46415","52.98","-139.95","SOUTHWEST JUNEAU - 370 NM SW of Juneau, AK","NDBC","Tsunami","dart","n","n","n","y"
"46416","49.901","-134.395","WEST VANCOUVER - 442NM West of Vancouver, BC, Canada","NDBC","Tsunami","dart","n","n","n","y"
"46419","48.805","-129.616","NORTHWEST SEATTLE - 300 NM WNW of Seattle, WA","NDBC","Tsunami","dart","n","n","n","y"
"46518","44.5","-170","Drifting Buoy","NWS Alaska Region","International Partners","buoy","n","n","n","n"
"48400","50.055","-144.873" elev="0","Ocean Climate Station Papa","NOAA/PMEL","IOOS Partners","buoy","y","n","n","n"
"48900","30","-90","(ng291)","NAVO","IOOS Partners","other","n","n","n","n"
"48901","30","-90","(ng297)","NAVO","IOOS Partners","other","n","n","n","n"
"48911","30","-90","SG553","Shell Oil","IOOS Partners","other","n","n","n","n"
"48912","30","-90","NG213 - 4800912","NAVO","IOOS Partners","other","n","n","n","n"
"48915","30","-90","SG187","University of Washington - APL","IOOS Partners","other","n","n","n","n"
"48916","30","-90","SG609","AOML","IOOS Partners","other","n","n","n","n"
"48917","30","-90","SG610","AOML","IOOS Partners","other","n","n","n","n"
"48919","30","-90","NG284 - 4800919","NAVO","IOOS Partners","other","n","n","n","n"
"51000","23.528","-153.792" elev="0","NORTHERN HAWAII ONE - 245NM NE of Honolulu HI","NDBC","NDBC Meteorological/Ocean","other","y","n","n","n"
"51001","24.453","-162" elev="0","NORTHWESTERN HAWAII ONE - 188 NM NW of Kauai Island, HI","NDBC","NDBC Meteorological/Ocean","buoy","n","n","n","n"
"51002","17.043","-157.742" elev="0","SOUTHWEST HAWAII - 215NM SSW of Hilo, HI","NDBC","NDBC Meteorological/Ocean","other","y","n","n","n"
"51003","19.196","-160.639" elev="0","WESTERN  HAWAII - 205 NM SW of Honolulu, HI","NDBC","NDBC Meteorological/Ocean","other","y","n","n","n"
"51004","17.533","-152.255" elev="0","SOUTHEAST HAWAII - 205 NM Southeast of Hilo, HI","NDBC","NDBC Meteorological/Ocean","other","y","n","n","n"
"51006","9","-140" elev="0","9N 140W","NDBC","TAO","tao" seq="24"
"51007","5","-140" elev="0","5N 140W","NDBC","TAO","tao" seq="25"
"51008","2","-140" elev="0","2N 140W","NDBC","TAO","tao" seq="26"
"51009","-2","-140" elev="0","2S 140W","NDBC","TAO","tao" seq="27"
"51010","0","-170" elev="0","0 170W","NDBC","TAO","tao" seq="28"
"51011","0","-125" elev="0","0 125W","NDBC","TAO","tao" seq="29"
"51014","-5","-140" elev="0","5S 140W","NDBC","TAO","tao" seq="30"
"51015","5","-125" elev="0","5N 125W","NDBC","TAO","tao" seq="31"
"51016","2","-125" elev="0","2N 125W","NDBC","TAO","tao" seq="32"
"51017","-2","-125" elev="0","2S 125W","NDBC","TAO","tao" seq="33"
"51018","-5","-125" elev="0","5S 125W","NDBC","TAO","tao" seq="34"
"51019","-5","-155" elev="0","5S 155W","NDBC","TAO","tao" seq="35"
"51020","5","-155" elev="0","5N 155W","NDBC","TAO","tao" seq="36"
"51021","2","-155" elev="0","2N 155W","NDBC","TAO","tao" seq="37"
"51022","-2","-155" elev="0","2S 155W","NDBC","TAO","tao" seq="38"
"51023","0","-155" elev="0","0 155W","NDBC","TAO","tao" seq="39"
"51045","19.734","-155.082" elev="0","Hilo Bay, HI","Pacific Islands Ocean Observing System","IOOS Partners","buoy","n","n","n","n"
"51046","20.024","-155.828" elev="0","Kawaihai, HI","Pacific Islands Ocean Observing System","IOOS Partners","buoy","n","n","n","n"
"51101","24.361","-162.075" elev="0","NORTHWESTERN HAWAII TWO - 186 NM NW of Kauai Is., HI   ","NDBC","NDBC Meteorological/Ocean","other","y","n","n","n"
"51201","21.671","-158.117" elev="0","Waimea Bay, HI (106)","Pacific Islands Ocean Observing System","IOOS Partners","buoy","y","n","n","n"
"51202","21.417","-157.68" elev="0","Mokapu Point, HI (098)","Pacific Islands Ocean Observing System","IOOS Partners","buoy","n","n","n","n"
"51205","21.019","-156.422" elev="0","Pauwela, Maui, HI (187)","Pacific Islands Ocean Observing System","IOOS Partners","buoy","y","n","n","n"
"51206","19.779","-154.97" elev="0","Hilo, Hawaii, HI (188)","Pacific Islands Ocean Observing System","IOOS Partners","buoy","n","n","n","n"
"51207","21.477","-157.752" elev="0","Kaneohe Bay, HI (198)","Pacific Islands Ocean Observing System","IOOS Partners","buoy","y","n","n","n"
"51208","22.285","-159.574" elev="0","Hanalei, Kauai, HI (202)","Pacific Islands Ocean Observing System","IOOS Partners","buoy","y","n","n","n"
"51209","-14.273","-170.5" elev="0","Aunuu, American Samoa (189)","Pacific Islands Ocean Observing System","IOOS Partners","buoy","y","n","n","n"
"51210","21.477","-157.756" elev="0","Kaneohe Bay, WETS, HI (225)","Pacific Islands Ocean Observing System","IOOS Partners","buoy","n","n","n","n"
"51211","21.297","-157.959" elev="0","Pearl Harbor Entrance, HI (233)","Pacific Islands Ocean Observing System","IOOS Partners","buoy","y","n","n","n"
"51212","21.323","-158.149" elev="0","Barbers Point, Kalaeloa, HI (238)","Pacific Islands Ocean Observing System","IOOS Partners","buoy","y","n","n","n"
"51213","20.75","-157.003" elev="0","Kaumalapau Southwest, Lanai, HI (239)","Pacific Islands Ocean Observing System","IOOS Partners","buoy","n","n","n","n"
"51301","8","-155" elev="0","8N 155W","NDBC","TAO","tao" seq="40"
"51302","-8","-155" elev="0","8S 155W","NDBC","TAO","tao" seq="41"
"51303","5","-170" elev="0","5N 170W","NDBC","TAO","tao" seq="42"
"51304","-5","-170" elev="0","5S 170W","NDBC","TAO","tao" seq="43"
"51305","2","-170" elev="0","2N 170W","NDBC","TAO","tao" seq="44"
"51306","-2","-170" elev="0","2S 170W","NDBC","TAO","tao" seq="45"
"51307","8","-125" elev="0","8N 125W","NDBC","TAO","tao" seq="47"
"51308","-8","-125" elev="0","8S 125W","NDBC","TAO","tao" seq="48"
"51309","8","-170" elev="0","8N 170W","NDBC","TAO","tao" seq="46"
"51310","-8","-170" elev="0","8S 170W","NDBC","TAO","tao" seq="49"
"51311","0","-140" elev="0","0 140W","NDBC","TAO","tao" seq="50"
"51407","19.556","-156.538","HAWAII - 34NM West of Kailua-Kona, HI","NDBC","Tsunami","dart","n","n","n","y"
"51425","-9.505","-176.262","NORTHWEST APIA - 370 NM NW of Apia, Samoa","NDBC","Tsunami","dart","n","n","n","y"
"51wh0","22","-158" elev="0","WHOTS - Woods Hole Ocean Time-series","Woods Hole Oceanographic Institution","IOOS Partners","buoy","y","n","y","n"
"52001","2","165" elev="0","2N 165E","NDBC","TAO","tao" seq="51"
"52002","-2","165" elev="0","2S 165E","NDBC","TAO","tao" seq="52"
"52003","5","165" elev="0","5N 165E","NDBC","TAO","tao" seq="53"
"52004","-5","165" elev="0","5S 165E","NDBC","TAO","tao" seq="70"
"52006","8","165" elev="0","8N 165E","NDBC","TAO","tao" seq="55"
"52007","-8","165" elev="0","8S 165E","NDBC","TAO","tao" seq="56"
"52200","13.354","144.788" elev="0","Ipan, Guam (121)","Pacific Islands Ocean Observing System","IOOS Partners","buoy","y","n","n","n"
"52201","7.083","171.392" elev="0","Kalo, Majuro, Marshall Islands (163)","Pacific Islands Ocean Observing System","IOOS Partners","buoy","n","n","n","n"
"52202","13.682","144.806" elev="0","Ritidian Point, Guam (196)","Pacific Islands Ocean Observing System","IOOS Partners","buoy","n","n","n","n"
"52211","15.268","145.662" elev="0","Tanapag, Saipan, NMI (197)","Pacific Islands Ocean Observing System","IOOS Partners","buoy","n","n","n","n"
"52309","5","180" elev="0","5N 180W","NDBC","TAO","tao" seq="73"
"52310","2","180" elev="0","2N 180W","NDBC","TAO","tao" seq="74"
"52311","0","180" elev="0","0 180W","NDBC","TAO","tao" seq="75"
"52312","-2","180" elev="0","2S 180W","NDBC","TAO","tao" seq="76"
"52313","-5","180" elev="0","5S 180W","NDBC","TAO","tao" seq="77"
"52315","8","180" elev="0","8N 180W","NDBC","TAO","tao" seq="78"
"52316","-8","180" elev="0","8S 180W","NDBC","TAO","tao" seq="79"
"52321","0","165" elev="0","0 165E","NDBC","TAO","tao" seq="80"
"52401","19.283","155.729","NORTHEAST SAIPAN - 610 NM ENE of Saipan","NDBC","Tsunami","dart","n","n","n","y"
"52402","11.929","153.909","SOUTHEAST SAIPAN - 540NM ESE of Saipan","NDBC","Tsunami","dart","n","n","n","y"
"52403","4.043","145.64" elev="0","NORTH MANUS - 345NM North of Manus Is , New Guinea","NDBC","Tsunami","dart","n","n","n","n"
"52404","20.633","132.12","NORTH PHILIPPINE SEA - 750 NM NE of Manila, Philippines","NDBC","Tsunami","dart","n","n","n","y"
"52405","13.042","132.157","SOUTH PHILIPPINE SEA -725 NM West of Agana, Guam","NDBC","Tsunami","dart","n","n","n","n"
"52406","-5.373","164.99","NORTHEAST SOLOMON - 370NM NE of Guadalcanal","NDBC","Tsunami","dart","n","n","n","y"
"53005","-8","81" elev="0","","Research Moored Array for African-Asian-Australian Monsoon Analysis and Prediction","International Partners","buoy","n","n","n","n"
"53006","-12","81" elev="0","","Research Moored Array for African-Asian-Australian Monsoon Analysis and Prediction","International Partners","buoy","y","n","n","n"
"53009","-12","93" elev="0","","Research Moored Array for African-Asian-Australian Monsoon Analysis and Prediction","International Partners","buoy","n","n","n","n"
"53040","-8","95" elev="0","","Research Moored Array for African-Asian-Australian Monsoon Analysis and Prediction","International Partners","buoy","y","n","n","n"
"53056","-5","95" elev="0","","Research Moored Array for African-Asian-Australian Monsoon Analysis and Prediction","International Partners","buoy","n","n","n","n"
"53057","-2","90" elev="0","","Research Moored Array for African-Asian-Australian Monsoon Analysis and Prediction","International Partners","buoy","n","n","n","n"
"55012","-15.664","158.453","Coral Sea 1     -     1285km ENE of Townsville","Australian Bureau of Meteorology","Tsunami","dart","n","n","n","y"
"55015","-46.956","160.343","TASMAN SEA 1     -     1110km ESE of Hobart","Australian Bureau of Meteorology","Tsunami","dart","n","n","n","y"
"55023","-14.715","153.537","Coral Sea 2     -     870km NE of Townsville","Australian Bureau of Meteorology","Tsunami","dart","n","n","n","y"
"55042","-44.79","161.7","Tasman Sea 2     -     1175km ESE of Hobart","Australian Bureau of Meteorology","Tsunami","dart","n","n","n","n"
"56001","-14.046","110.028","Indian Ocean 1     -      1025km NW of Dampier","Australian Bureau of Meteorology","Tsunami","dart","n","n","n","n"
"56003","-15.019","118.073","Indian Ocean 2     -     630km NNE of Dampier","Australian Bureau of Meteorology","Tsunami","dart","n","n","n","y"
"56053","-16","81" elev="0","","Research Moored Array for African-Asian-Australian Monsoon Analysis and Prediction","International Partners","buoy","n","n","n","n"
"56055","-25","100" elev="0","","Research Moored Array for African-Asian-Australian Monsoon Analysis and Prediction","International Partners","buoy","n","n","n","n"
"58900","30","-90","SG204","University of Washington - APL","IOOS Partners","other","n","n","n","n"
"58904","30","-90","SG170","University of Washington - APL","IOOS Partners","other","n","n","n","n"
"58906","30","-90","SB124","University of Washington - APL","IOOS Partners","other","n","n","n","n"
"58907","30","-90","SG178","University of Washington - APL","IOOS Partners","other","n","n","n","n"
"58908","30","-90","SG179","University of Washington - APL","IOOS Partners","other","n","n","n","n"
"58909","30","-90","SG203","University of Washington - APL","IOOS Partners","other","n","n","n","n"
"61001","43.4","7.8","Nice Buoy","Meteo France","International Partners","buoy","n","n","n","n"
"61002","42.102","4.703","Lion Buoy","Meteo France","International Partners","buoy","n","n","n","n"
"62001","45.23","-5" elev="0","Gascogne Buoy","UK Met Office","International Partners","buoy","y","n","n","n"
"62027","49.082","-2.218","Jersey Buoy, English Channel - 5 nm south of Jersey, UK","Meteorological Dept, States of Jersey","International Partners","buoy","n","n","n","n"
"62029","48.72","-12.43" elev="0","K1 Buoy","UK Met Office","International Partners","buoy","y","n","n","n"
"62030","50.25","-4.217","L4 Buoy","UK Met Office","International Partners","buoy","n","n","n","n"
"62050","50","-4.4","E1","UK Met Office","International Partners","buoy","y","n","n","n"
"62081","51","-13.55" elev="0","K2 Buoy","UK Met Office","International Partners","buoy","y","n","n","n"
"62090","53.127","-11.2" elev="0","M1 - 50 NM West of Aran Islands","Met Eireann","International Partners","buoy","n","n","n","n"
"62095","53.04","-15.53" elev="0","M6 - West Coast","Met Eireann","International Partners","buoy","n","n","n","n"
"62103","49.9","-2.9" elev="0","Channel Lightship","UK Met Office","International Partners","fixed","y","n","n","n"
"62105","55.41","-11.81" elev="0","K4 Buoy","UK Met Office","International Partners","buoy","n","n","n","n"
"62107","50.102","-6.1" elev="0","Sevenstones Lightship","UK Met Office","International Partners","fixed","y","n","n","n"
"62114","58.3","0","Tartan &quot;A&quot; AWS","Private Industry Oil Platform","International Partners","oilrig","y","n","n","n"
"62121","53.5","2.7","Carrack AWS","Private Industry Oil Platform","International Partners","oilrig","y","n","n","n"
"62124","53.6","-3.6","Conwy","Private Industry Oil Platform","International Partners","oilrig","y","n","n","n"
"62125","53.8","-3.5","","Private Industry Oil Platform","International Partners","oilrig","n","n","n","n"
"62126","53.9","-3.6","","Private Industry Oil Platform","International Partners","oilrig","n","n","n","n"
"62127","54","0.7","Cleeton AWS","Private Industry Oil Platform","International Partners","oilrig","n","n","n","n"
"62130","58.7","1.3","Brae A","Private Industry Oil Platform","International Partners","oilrig","y","n","n","n"
"62135","54.2","1.6","Trent","Private Industry Oil Platform","International Partners","oilrig","y","n","n","n"
"62142","53","2.101","North Sea","Private Industry Oil Platform","International Partners","oilrig","n","n","n","n"
"62144","53.4","1.7","Clipper AWS","Private Industry Oil Platform","International Partners","oilrig","y","n","n","n"
"62145","53.102","2.8","North Sea","Private Industry Oil Platform","International Partners","oilrig","y","n","n","n"
"62146","57.2","2.1","Lomond AWS","Private Industry Oil Platform","International Partners","oilrig","y","n","n","n"
"62147","55.7","4.7","Galaxy 111","Private Industry Oil Platform","International Partners","oilrig","n","n","n","n"
"62148","53.6","1.5","Barque AWS","Private Industry Oil Platform","International Partners","oilrig","y","n","n","n"
"62149","53.7","1.1","West Sole &quot;A&quot; AWS","Private Industry Oil Platform","International Partners","oilrig","y","n","n","n"
"62150","53.6","0.7","Amethyst AWS","Private Industry Oil Platform","International Partners","oilrig","n","n","n","n"
"62163","47.55","-8.47" elev="0","Brittany Buoy","UK Met Office","International Partners","buoy","y","n","n","n"
"62164","57.2","0.8","Anasuria AWS","Private Industry Oil Platform","International Partners","oilrig","y","n","n","n"
"62165","54","1.1","Ravenspurn North AWS","Private Industry Oil Platform","International Partners","oilrig","y","n","n","n"
"62166","53","2.5","Thames","Private Industry Oil Platform","International Partners","oilrig","n","n","n","n"
"62170","51.24","2","F3 Light Vessel","UK Met Office","International Partners","fixed","y","n","n","n"
"62298","49.4","-8.6","Celtic Sea Buoy","UK Met Office","International Partners","buoy","n","n","n","n"
"62301","52.22","-4.42" elev="0","Aberporth Buoy","UK Met Office","International Partners","buoy","n","n","n","n"
"62303","51.602","-5.1" elev="0","Pembroke Buoy","UK Met Office","International Partners","buoy","n","n","n","n"
"62304","51.102","1.8" elev="0","Sandettie Lightship","UK Met Office","International Partners","fixed","y","n","n","n"
"62305","50.4","0" elev="0","Greenwich Lightship","UK Met Office","International Partners","fixed","y","n","n","n"
"62442","49","-16.5","Pap","UK Met Office","International Partners","buoy","y","n","n","n"
"63105","61","1.692","Brent &quot;B&quot; AWS","Private Industry Oil Platform","International Partners","oilrig","n","n","n","n"
"63110","59.5","1.5","Beryl A AWS","Private Industry Oil Platform","International Partners","oilrig","y","n","n","n"
"63112","61.1","1","Cormorant AWS","Private Industry Oil Platform","International Partners","oilrig","y","n","n","n"
"63113","61","1.708","Brent &quot;A&quot; AWS","Private Industry Oil Platform","International Partners","oilrig","n","n","n","n"
"63115","61.6","1.3","Magnus AWS","Private Industry Oil Platform","International Partners","oilrig","y","n","n","n"
"63117","61.4","1.1","Eider AWS","Private Industry Oil Platform","International Partners","oilrig","y","n","n","n"
"64045","59.15","-11.79" elev="0","K5 Buoy","UK Met Office","International Partners","buoy","y","n","n","n"
"64046","60.483","-4.167" elev="0","K7 Buoy","UK Met Office","International Partners","buoy","n","n","n","n"
"68900","30","-90","SG217","University of Washington - APL","IOOS Partners","other","n","n","n","n"
"aamc1","37.772","-122.3" elev="3.5","9414750 - Alameda, CA","NOS","NOS/CO-OPS","fixed","y","n","n","n"
"acfs1","32.664","-80.413","Grove Plantation, ACE Basin Reserve, SC","National Estuarine Research Reserve System","NERRS","fixed","n","n","y","n"
"acqs1","32.523","-80.357","St. Pierre, ACE Basin Reserve, SC","National Estuarine Research Reserve System","NERRS","fixed","n","n","y","n"
"acxs1","32.559","-80.454" elev="0","Bennett's Point, ACE Basin Reserve, SC","National Estuarine Research Reserve System","NERRS","fixed","y","n","n","n"
"acyn4","39.357","-74.418" elev="8.3","8534720 - Atlantic City, NJ","NOS","NOS/CO-OPS","fixed","y","n","n","n"
"adka2","51.861","-176.637" elev="5.2","9461380 - Adak Island, AK","NOS","NOS/CO-OPS","fixed","y","n","n","n"
"agcm4","42.621","-82.527" elev="177","9014070 - Algonac, MI","NOS","NOS/CO-OPS","fixed","y","n","n","n"
"agmw3","44.608","-87.433" elev="179","Algoma City Marina, WI","NWS Central Region","IOOS Partners","fixed","n","n","n","n"
"agxc1","33.716","-118.246","9410647 - Angels Gate, CA","NOAA NOS PORTS","NOS/CO-OPS","fixed","y","n","n","n"
"ajxa2","58.287","-134.398" elev="4.6","Juneau AJ Dock, AK","Marine Exchange of Alaska","IOOS Partners","fixed","n","n","n","n"
"alia2","56.898","-154.247" elev="4.6","9457804 - Alitak, AK","NOS","NOS/CO-OPS","fixed","y","n","n","n"
"alxn6","44.331","-75.934" elev="74.9","8311062 - Alexandria Bay, NY","NOS","NOS/CO-OPS","fixed","y","n","n","n"
"amaa2","58.915","-151.952" elev="33.2","East Amatuli Island Light, AK","NDBC","NDBC Meteorological/Ocean","fixed","y","n","n","n"
"amrl1","29.45","-91.338" elev="0","8764227 - LAWMA, Amerada Pass, LA","NOS","NOS/CO-OPS","fixed","y","n","n","n"
"anmn6","42.018","-73.917" elev="9","Field Station, Hudson River Reserve, NY","National Estuarine Research Reserve System","NERRS","fixed","y","n","n","n"
"anpt2","27.837","-97.039" elev="10.261","8775241 - Aransas, Aransas Pass, TX","TCOON","IOOS Partners","fixed","y","n","n","n"
"anrn6","42.027","-73.926","Tivoli South Bay, Hudson River Reserve, NY","National Estuarine Research Reserve System","NERRS","fixed","n","n","y","n"
"anta2","61.238","-149.89" elev="7.4","9455920 - Anchorage, AK","NOS","NOS/CO-OPS","fixed","y","n","n","n"
"anvc1","38.915","-123.711" elev="7.7","9416841 - Arena Cove, CA","NOS","NOS/CO-OPS","fixed","y","n","n","n"
"apam2","38.983","-76.479" elev="1.4","8575512 - Annapolis, MD","NOS","NOS/CO-OPS","fixed","y","n","n","n"
"apcf1","29.724","-84.98" elev="1.9","8728690 - Apalachicola, FL","NOS","NOS/CO-OPS","fixed","y","n","n","n"
"apnm4","45.06","-83.424" elev="177.5","Alpena Harbor Light, Alpena, MI","GLERL","IOOS Partners","fixed","y","n","n","n"
"apqf1","29.786","-84.875","East Bay Bottom, Apalachicola Reserve, FL","National Estuarine Research Reserve System","NERRS","fixed","n","n","y","n"
"aprp7","13.444","144.657" elev="3.3","1630000 - Apra Harbor, Guam","NOS","NOS/CO-OPS","fixed","y","n","n","n"
"apxa2","59.77","-151.868" elev="5","Anchor Point, Kachemak Bay Reserve, AK","National Estuarine Research Reserve System","NERRS","fixed","y","n","n","n"
"apxf1","29.769","-84.881" elev="0.6","East Bay, Apalachicola Reserve, FL","National Estuarine Research Reserve System","NERRS","fixed","y","n","n","n"
"arop4","18.48","-66.702","9757809 - Arecibo, PR","Puerto Rico Seismic Network","IOOS Partners","fixed","y","n","n","n"
"arpf1","28.433","-82.667" elev="0","APK - Aripeka, FL","COMPS (University of South Florida)","IOOS Partners","fixed","y","n","n","n"
"asto3","46.207","-123.768" elev="3.6","9439040 - Astoria, OR","NOS","NOS/CO-OPS","fixed","y","n","n","n"
"atgm1","44.392","-68.204" elev="3.4","8413320 - Bar Harbor, ME","NOS","NOS/CO-OPS","fixed","y","n","n","n"
"atka2","52.232","-174.173" elev="4.4","9461710 - Atka, AK","NOS","NOS/CO-OPS","fixed","y","n","n","n"
"auga2","59.378","-153.348" elev="9.1","Augustine Island, AK","NDBC","NDBC Meteorological/Ocean","fixed","y","n","n","n"
"awrt2","28.227","-96.796","8774230 - Aransas Wildlife Refuge, TX","TCOON","IOOS Partners","fixed","y","n","n","n"
"babt2","27.297","-97.405" elev="0","8776604 - Baffin Bay, TX","TCOON","IOOS Partners","fixed","y","n","n","n"
"bara9","17.591","-61.821" elev="1.3","9761115 - Barbuda, AG","NOS","NOS/CO-OPS","fixed","y","n","n","n"
"barn6","42.345","-79.595" elev="174","Barcelona Harbor, NY","NWS Eastern Region","IOOS Partners","fixed","n","n","n","n"
"batn6","40.701","-74.014" elev="2","8518750 - The Battery, NY","NOS","NOS/CO-OPS","fixed","y","n","n","n"
"baxc1","33.766","-118.24","9410691 - Los Angeles Badger Avenue Bridge","NOAA NOS PORTS","NOS/CO-OPS","fixed","y","n","n","n"
"bdrn4","40.082","-74.87" elev="2.2","8539094 - Burlington, Delaware River, NJ","NOAA NOS PORTS","NOS/CO-OPS","fixed","y","n","n","n"
"bdsp1","39.98","-75.079","8546252 - Bridesburg, PA","NOAA NOS PORTS","NOS/CO-OPS","fixed","y","n","n","n"
"bdvf1","25.478","-80.989" elev="0","Broad River, FL","Everglades National Park","IOOS Partners","fixed","y","n","y","n"
"bdxc1","38.317","-123.071","Bodega, CA","University of California Davis, Bodega Marine Laboratory","IOOS Partners","fixed","y","n","y","n"
"bepb6","32.374","-64.701" elev="3.4","2695540 - Bermuda, St. Georges Island, BM","NOS","NOS/CO-OPS","fixed","n","n","n","n"
"bftn7","34.717","-76.671" elev="1.9","8656483 - Beaufort, NC","NOS","NOS/CO-OPS","fixed","y","n","n","n"
"bgcf1","26.404","-81.881" elev="0","BCP - Big Carlos Pass, FL","COMPS (University of South Florida)","IOOS Partners","fixed","y","n","n","n"
"bgnn4","40.639","-74.146" elev="3","8519483 - Bergen Point West Reach, NY","NOAA NOS PORTS","NOS/CO-OPS","fixed","y","n","n","n"
"bgxn3","43.059","-70.83" elev="3","Greenland, Great Bay Reserve, NH","National Estuarine Research Reserve System","NERRS","fixed","y","n","n","n"
"bhbm3","42.355","-71.05" elev="3.4","8443970 - Boston, MA","NOS","NOS/CO-OPS","fixed","y","n","n","n"
"bhri3","41.646","-87.147" elev="180","Burns Harbor, IN","NWS Central Region","IOOS Partners","fixed","y","n","n","n"
"bigm4","46.827","-87.727" elev="185","Big Bay, MI","NWS Central Region","IOOS Partners","fixed","y","n","n","n"
"bilw3","46.722","-92.064","Barker's Island, Lake Superior Reserve, WI","National Estuarine Research Reserve System","NERRS","fixed","n","n","y","n"
"bism2","38.22","-76.039" elev="1.1","8571421 - Bishops Head, MD","NOS","NOS/CO-OPS","fixed","y","n","n","n"
"bkbf1","30.192","-81.692" elev="1.4","8720357 -  I-295 Buckman Bridge, St Johns River, FL","NOAA NOS PORTS","NOS/CO-OPS","fixed","y","n","n","n"
"bktl1","30.19","-93.301" elev="0","8767961 - Lake Charles Bulk Terminal, LA","NOS","NOS/CO-OPS","fixed","y","n","n","n"
"bkyf1","25.119","-80.834","Buoy Key, FL","Everglades National Park","IOOS Partners","fixed","y","n","y","n"
"blia2","60.839","-146.884" elev="0","Bligh Reef Light, AK","NDBC","NDBC Meteorological/Ocean","fixed","y","n","n","n"
"blif1","30.393","-81.523" elev="2","8720233 - Blount Island Command, St Johns River, FL","NOAA NOS PORTS","NOS/CO-OPS","fixed","y","n","n","n"
"blta2","58.455","-135.889" elev="5","Bartlett Cove AK","NWS Alaska Region","IOOS Partners","fixed","y","n","n","n"
"bltm2","39.267","-76.579" elev="1.4","8574680 - Baltimore, MD","NOS","NOS/CO-OPS","fixed","y","n","n","n"
"bltm3","41.704","-71.174" elev="2.1","8447387 - Borden Flats Light at Fall River, MA","NOAA NOS PORTS","NOS/CO-OPS","fixed","y","n","n","n"
"bnkf1","25.087","-80.519" elev="0","Butternut Key, FL","Everglades National Park","IOOS Partners","fixed","y","n","y","n"
"bobf1","25.027","-80.681" elev="0","Bob Allen, FL","Everglades National Park","IOOS Partners","fixed","y","n","y","n"
"brhc3","41.174","-73.181" elev="1.9","8467150 - Bridgeport, CT","NOS","NOS/CO-OPS","fixed","y","n","n","n"
"brim2","38.781","-76.714","Railroad, Chesapeake Bay Reserve, MD","National Estuarine Research Reserve System","NERRS","fixed","n","n","n","n"
"brnd1","38.987","-75.113" elev="1.9","8555889 - Brandywine Shoal Light, DE","NOAA NOS PORTS","NOS/CO-OPS","fixed","y","n","n","n"
"bsbm4","44.055","-86.514" elev="184","Big Sable Point, MI","NWS Central Region","IOOS Partners","fixed","y","n","n","n"
"bsca1","30.329","-87.829" elev="0","Bon Secour, AL","Dauphin Island Sea Lab","IOOS Partners","fixed","y","n","n","n"
"bskf1","25.266","-81.162","Big Sable Creek, FL","Everglades National Park","IOOS Partners","fixed","n","n","y","n"
"bslm2","38.781","-76.708" elev="0.3","Jug Bay, Chesapeake Bay Reserve, MD","National Estuarine Research Reserve System","NERRS","fixed","y","n","n","n"
"bthd1","38.537","-75.046" elev="-11","Bethany Beach, DE","U.S. Army Corps of Engineers","IOOS Partners","other","n","n","n","n"
"bufn6","42.878","-78.89" elev="176.5","9063020 - Buffalo, NY","NOS","NOS/CO-OPS","fixed","y","n","n","n"
"burl1","28.905","-89.428" elev="0","Southwest Pass, LA","NDBC","NDBC Meteorological/Ocean","fixed","y","n","n","n"
"buzm3","41.397","-71.033" elev="0","Buzzards Bay, MA","NDBC","NDBC Meteorological/Ocean","fixed","y","n","n","n"
"bvqw1","48.496","-122.501","Bayview Channel - Padilla Bay, WA","National Estuarine Research Reserve System","NERRS","fixed","n","n","y","n"
"bwsf1","25.178","-80.438" elev="0","Blackwater Sound, FL","Everglades National Park","IOOS Partners","fixed","y","n","y","n"
"bygl1","29.789","-90.42" elev="0","8762482 - West Bank 1, Bayou Gauche, LA","NOS","NOS/CO-OPS","fixed","y","n","n","n"
"bzbm3","41.524","-70.671" elev="2.5","8447930 - Woods Hole, MA","NOS","NOS/CO-OPS","fixed","y","n","n","n"
"bzst2","26.067","-97.155" elev="10.26","8779749 - SPI Brazos Santiago, TX ","TCOON","IOOS Partners","fixed","y","n","n","n"
"camm2","38.574","-76.069" elev="2.3","8571892 - Cambridge, MD","NOS","NOS/CO-OPS","fixed","y","n","n","n"
"canf1","25.422","-80.942" elev="0","Cane Patch, FL","Everglades National Park","IOOS Partners","fixed","y","n","y","n"
"capl1","29.768","-93.343" elev="0","8768094 - Calcasieu Pass, LA","NOS","NOS/CO-OPS","fixed","y","n","n","n"
"carl1","29.933","-90.135" elev="0","8761955 - Carrollton, LA ","NOS","NOS/CO-OPS","fixed","y","n","n","n"
"casm1","43.656","-70.246" elev="3.5","8418150 - Portland, ME","NOS","NOS/CO-OPS","fixed","y","n","n","n"
"cblo1","41.981","-80.556" elev="177","Conneaut Breakwater Light, OH","NWS Eastern Region","IOOS Partners","fixed","n","n","n","n"
"cbrw3","45.198","-87.36" elev="180","Chambers Island, WI","NWS Central Region","IOOS Partners","fixed","y","n","n","n"
"cdea2","56.001","-134.136" elev="15","Cape Decision, AK","NWS Alaska Region","IOOS Partners","fixed","y","n","n","n"
"cdrf1","29.136","-83.029" elev="1.8","Cedar Key, FL","NDBC","NDBC Meteorological/Ocean","fixed","y","n","n","n"
"cdxa2","56.001","-134.136" elev="15.2","Cape Decision MXAK, AK","Marine Exchange of Alaska","IOOS Partners","fixed","n","n","n","n"
"cecc1","41.746","-124.184" elev="2.9","9419750 - Crescent City, CA","NOS","NOS/CO-OPS","fixed","y","n","n","n"
"cfwm1","44.657","-67.205" elev="3.8"," 8411060 - Cutler Farris Wharf, ME","NOS","NOS/CO-OPS","fixed","y","n","n","n"
"cgcl1","28.791","-89.056" elev="0","Cognac","Shell Oil","IOOS Partners","fixed","n","n","n","n"
"chao3","43.351","-124.337","9432780 - Charleston, OR","NOS","NOS/CO-OPS","fixed","y","n","n","n"
"chav3","18.335","-64.92" elev="1.1","9751639 - Charlotte Amalie, VI","NOS","NOS/CO-OPS","fixed","y","n","n","n"
"chbv2","37.032","-76.083","8638901 - Chesapeake Bay Bridge Tunnel, VA","NOS","NOS/CO-OPS","fixed","y","n","n","n"
"chcm2","39.527","-75.81" elev="1.8","8573927 - Chesapeake City, MD","NOAA NOS PORTS","NOS/CO-OPS","fixed","y","n","n","n"
"chds1","33.661","-82.199" elev="116.1","Strom Thurmond Dam, SC","NWS Eastern Region","IOOS Partners","fixed","y","n","n","n"
"chii2","41.916","-87.572" elev="176","Harrison-Dever Crib, Chicago, IL","GLERL","IOOS Partners","fixed","y","n","n","n"
"chqo3","43.282","-124.32","Winchester Arm - South Slough, OR","National Estuarine Research Reserve System","NERRS","fixed","n","n","y","n"
"chsv3","17.748","-64.699" elev="1.3","9751364 - Christiansted Harbor, St. Croix, VI","NOS","NOS/CO-OPS","fixed","y","n","n","n"
"chtm3","41.688","-69.95" elev="3.8","8447435 - Chatham, MA","NOS","NOS/CO-OPS","fixed","y","n","n","n"
"chts1","32.781","-79.924" elev="2.6","8665530 - Charleston, Cooper River Entrance, SC","NOS","NOS/CO-OPS","fixed","n","n","n","n"
"chyv2","36.926","-76.007","8638999 - Cape Henry, VA","NOAA NOS PORTS","NOS/CO-OPS","fixed","y","n","n","n"
"chyw1","48.863","-122.759" elev="7.6","9449424 - Cherry Point, WA","NOS","NOS/CO-OPS","fixed","y","n","n","n"
"clbf1","27.736","-82.686" elev="0","Clam Bayou, FL","COMPS (University of South Florida)","IOOS Partners","fixed","y","n","n","n"
"clbp4","18.301","-65.302" elev="1","9752235 - Culebra, PR","NOS","NOS/CO-OPS","fixed","y","n","n","n"
"clkn7","34.622","-76.525" elev="4.6","Cape Lookout, NC","NDBC","NDBC Meteorological/Ocean","fixed","y","n","n","n"
"clsm4","42.471","-82.877" elev="175","St. Clair Shores, MI","NWS Central Region","IOOS Partners","fixed","y","n","n","n"
"cman4","38.968","-74.96" elev="3.2","8536110 - Cape May, NJ","NOS","NOS/CO-OPS","fixed","y","n","n","n"
"cmln3","43.07","-70.7","Coastal Marine Lab, New Castle, NH","University of New Hampshire","IOOS Partners","fixed","y","n","n","n"
"cmpo1","41.547","-83.015" elev="175","Camp Perry, OH","NWS Eastern Region","IOOS Partners","fixed","y","n","n","n"
"cmti2","41.73","-87.538" elev="178.5","9087044 - Calumet Harbor, IL","NOS","NOS/CO-OPS","fixed","y","n","n","n"
"cnbf1","25.702","-81.186" elev="0","Cannon Bay, FL","Everglades National Park","IOOS Partners","fixed","y","n","y","n"
"cndo1","41.542","-81.637" elev="176.1","9063063 - Cleveland, OH","NOS","NOS/CO-OPS","fixed","y","n","n","n"
"cnii2","41.856","-87.609" elev="180","Northerly Isle, IL","NWS Central Region","IOOS Partners","fixed","y","n","n","n"
"covm2","38.402","-76.385" elev="0","8577018 - Cove Point LNG Pier, MD","NOAA NOS PORTS","NOS/CO-OPS","fixed","y","n","n","n"
"cpmw1","48.86","-122.756" elev="4.6","9449419 - Cherry Point South Dock Met, WA","NOAA NOS PORTS","NOS/CO-OPS","fixed","y","n","n","n"
"cpnw1","48.863","-122.758" elev="4.6","9449427 - Cherry Point North Dock Met","NOAA NOS PORTS","NOS/CO-OPS","fixed","y","n","n","n"
"cptr1","41.717","-71.345" elev="0","8452944 - Conimicut Light, RI","NOAA NOS PORTS","NOS/CO-OPS","fixed","y","n","n","n"
"cpvm2","38.995","-76.388" elev="3.4","8575437 - Chesapeake Bay Bridge Visibility, MD","NOAA NOS PORTS","NOS/CO-OPS","fixed","y","n","n","n"
"cpxc1","35.17","-120.741" elev="0","Cal Poly Pier, CA","California Polytechnic State University","IOOS Partners","fixed","n","n","y","n"
"cquc1","38.066","-122.23","Carquinez, CA","Central and Northern California Ocean Observing System","IOOS Partners","fixed","n","n","n","n"
"crga2","55.474","-133.136" elev="28.9","Craig, AK","NWS Alaska Region","IOOS Partners","fixed","n","n","n","n"
"crta1","30.308","-88.14" elev="0","Cedar Point, AL","Dauphin Island Sea Lab","IOOS Partners","fixed","n","n","n","n"
"crva2","60.558","-145.752" elev="4.6","9454050 - Cordova, AK","NOS","NOS/CO-OPS","fixed","y","n","n","n"
"cryv2","36.888","-76.338" elev="1","8638595 - South Craney Island, VA","NOAA NOS PORTS","NOS/CO-OPS","fixed","y","n","n","n"
"cspa2","58.199","-136.64" elev="25","Cape Spencer, AK","NWS Alaska Region","IOOS Partners","fixed","y","n","n","n"
"cvqv2","37.571","-76.884","Sweethall Pier, Chesapeake Bay Reserve, VA","National Estuarine Research Reserve System","NERRS","fixed","n","n","y","n"
"cwaf1","25.297","-81.013" elev="0","Clear Water Pass, FL ","Everglades National Park","IOOS Partners","fixed","y","n","y","n"
"cwbf1","27.978","-82.832" elev="1.3","8726724 - Clearwater Beach, FL","NOS","NOS/CO-OPS","fixed","y","n","n","n"
"cwci","47.334","-85.833" elev="163","Caribou Island","Environment and Climate Change Canada","International Partners","fixed","y","n","n","n"
"cwqo3","43.338","-124.321","Charleston Bridge, South Slough Reserve, OR","National Estuarine Research Reserve System","NERRS","fixed","n","n","n","n"
"cwqt2","28.132","-97.034","Copano Bay East, Mission-Aransas Reserve, TX","National Estuarine Research Reserve System","NERRS","fixed","n","n","y","n"
"cygm4","45.658","-84.464" elev="178","Cheboygan Marina, MI","NWS Central Region","IOOS Partners","fixed","n","n","n","n"
"dbln6","42.494","-79.354" elev="182.9","Dunkirk, NY","NDBC","NDBC Meteorological/Ocean","fixed","y","n","n","n"
"dbqs1","33.36","-79.167","Debidue Creek - North Inlet - Winyah Bay, SC","National Estuarine Research Reserve System","NERRS","fixed","n","n","n","n"
"deld1","39.582","-75.589" elev="2.3","8551762 - Delaware City, DE","NOAA NOS PORTS","NOS/CO-OPS","fixed","y","n","n","n"
"desw1","47.675","-124.485" elev="21.3","Destruction Island, WA","NDBC","NDBC Meteorological/Ocean","fixed","y","n","n","n"
"disw3","47.079","-90.728" elev="191.7","Devils Island, WI","NDBC","NDBC Meteorological/Ocean","fixed","y","n","n","n"
"dkkf1","25.18","-80.49" elev="0","Duck Key, FL","Everglades National Park","IOOS Partners","fixed","y","n","y","n"
"dmsf1","30.387","-81.559","8720219 - Dames Point, FL","NOAA NOS PORTS","NOS/CO-OPS","fixed","y","n","n","n"
"domv2","36.962","-76.424","8638511 - Dominion Terminal Associates, VA","NOAA NOS PORTS","NOS/CO-OPS","fixed","y","n","n","n"
"dpha1","30.251","-88.078" elev="0","Dauphin Island Sea Lab, AL","Dauphin Island Sea Lab","IOOS Partners","fixed","n","n","n","n"
"dpia1","30.25","-88.075" elev="0","Dauphin Island, AL","NDBC","NDBC Meteorological/Ocean","fixed","y","n","n","n"
"dpxc1","38.056","-122.264" elev="0","9415141 - Davis Point, San Pablo Bay, CA","NOAA NOS PORTS","NOS/CO-OPS","fixed","y","n","n","n"
"drfa2","60.553","-152.137" elev="15.9","Drift River Terminal, AK","NDBC","NDBC Meteorological/Ocean","fixed","n","n","n","n"
"drsd1","39.089","-75.437" elev="1.2","Saint Jones River, Delaware Reserve, DE","National Estuarine Research Reserve System","NERRS","fixed","y","n","n","n"
"dtlm4","45.993","-83.898" elev="178.5","9075099 - De Tour Village, MI","NOS","NOS/CO-OPS","fixed","y","n","n","n"
"dukn7","36.184","-75.746" elev="7.7"," 8651370 - Duck Pier, NC ","NOS","NOS/CO-OPS","fixed","y","n","n","n"
"dulm5","46.776","-92.092" elev="186","9099064 - Duluth, MN","NOS","NOS/CO-OPS","fixed","y","n","n","n"
"eazc1","36.846","-121.754","Azevedo Pond, Elkhorn Slough Reserve, CA","National Estuarine Research Reserve System","NERRS","fixed","n","n","y","n"
"ebef1","27.923","-82.421" elev="-0.5","8726674 - East Bay, FL","NOAA NOS PORTS","NOS/CO-OPS","fixed","y","n","n","n"
"ebsw1","47.602","-122.338" elev="3.8","9447130 - Seattle, WA","NOS","NOS/CO-OPS","fixed","n","n","n","n"
"ehsc1","36.835","-121.738","North Marsh, Elkhorn Slough Reserve, CA","National Estuarine Research Reserve System","NERRS","fixed","n","n","y","n"
"einl1","29.373","-91.384" elev="6","8764314 - North of Eugene Island, LA","NOAA NOS PORTS","NOS/CO-OPS","fixed","y","n","n","n"
"elfa2","58.193","-136.347","9452634 - Elfin Cove, AK","NOS","NOS/CO-OPS","fixed","y","n","n","n"
"elqc1","36.818","-121.739","South Marsh, Elkhorn Slough Reserve, CA","National Estuarine Research Reserve System","NERRS","fixed","n","n","y","n"
"elxc1","36.815","-121.738" elev="15.85","Caspian Weather Station, Elkhorn Slough Reserve, CA","National Estuarine Research Reserve System","NERRS","fixed","y","n","n","n"
"emat2","28.71","-95.914" elev="0.9","8773146 - Matagorda City, TX","TCOON","IOOS Partners","fixed","y","n","n","n"
"eptt2","29.481","-94.917" elev="2.3","8771013 - Eagle Point, TX","NOS","NOS/CO-OPS","fixed","y","n","n","n"
"erep1","42.172","-80.098" elev="177","9063038 - Erie","NOS","NOS/CO-OPS","fixed","y","n","n","n"
"eroa2","58.971","-135.221" elev="17","Eldred Rock, AK","NWS Alaska Region","IOOS Partners","fixed","y","n","n","n"
"erxa2","58.971","-135.221" elev="16.8","Eldred Rock MXAK, AK","Marine Exchange of Alaska","IOOS Partners","fixed","y","n","n","n"
"espp4","18.094","-65.471" elev="2","9752695 - Esperanza, Viequez Island, PR","NOS","NOS/CO-OPS","fixed","y","n","n","n"
"evmc1","36.811","-121.779","Vierra Mouth, Elkhorn Slough Reserve, CA","National Estuarine Research Reserve System","NERRS","fixed","n","n","y","n"
"faio1","41.764","-81.281" elev="176.4","9063053 - Fairport, OH","NOS","NOS/CO-OPS","fixed","y","n","n","n"
"fbis1","32.685","-79.888" elev="3","Folly Island, SC","NDBC","NDBC Meteorological/Ocean","fixed","y","n","n","n"
"fffc1","38.195","-122.033","First Mallard","National Estuarine Research Reserve System","NERRS","fixed","n","n","n","n"
"ffia2","57.272","-133.63" elev="6.7","Five Fingers, AK","NDBC","NDBC Meteorological/Ocean","fixed","y","n","n","n"
"fhpf1","28.153","-82.801" elev="0","FHP - Fred Howard Park, FL","COMPS (University of South Florida)","IOOS Partners","fixed","y","n","n","n"
"fila2","59.332","-151.995" elev="17.9","Flat Island Light, AK","NDBC","NDBC Meteorological/Ocean","fixed","y","n","n","n"
"fmoa1","30.228","-88.024" elev="2","8734673 - Fort Morgan, AL","NOAA NOS PORTS","NOS/CO-OPS","fixed","y","n","n","n"
"fmrf1","26.647","-81.871" elev="1.4","8725520 - Fort Myers, FL","NOS","NOS/CO-OPS","fixed","y","n","n","n"
"foxr1","41.807","-71.401" elev="2.7","8454000 - Providence, RI","NOS","NOS/CO-OPS","fixed","y","n","n","n"
"fpkg1","32.035","-80.903" elev="2.9","8670870 - Fort Pulaski, GA","NOS","NOS/CO-OPS","fixed","y","n","n","n"
"fpst2","28.936","-95.294" elev="0","8772471 - Freeport SPIP, TX","TCOON","IOOS Partners","fixed","y","n","n","n"
